[
    {
        "id": 1,
        "name": "Mensa UniCampus Magdeburg",
        "city": "Magdeburg",
        "address": "Pfälzer Str. 1, 39106 Magdeburg",
        "coordinates": [
            52.139618827301895,
            11.647599935531616
        ]
    },
    {
        "id": 2,
        "name": "Magdeburg Herrenkurg",
        "city": "Magdeburg",
        "address": "Breitscheidstr. 2, 39114 Magdeburg",
        "coordinates": [
            52.14006658530411,
            11.67566657066345
        ]
    },
    {
        "id": 3,
        "name": "Mensa Stendal",
        "city": "Stendal",
        "address": "Osterburger Str. 25, 39567 Stendal",
        "coordinates": [
            52.615015758022146,
            11.849302053451538
        ]
    },
    {
        "id": 4,
        "name": "Mensa Wernigerode",
        "city": "Wernigerode",
        "address": "Friedrichstraße 57 – 59,  38855 Wernigerode",
        "coordinates": [
            51.8257591770436,
            10.760003328323364
        ]
    },
    {
        "id": 5,
        "name": "DomCafete Halberstadt",
        "city": "Halberstadt",
        "address": "Am Domplatz 16,  38820 Halberstadt",
        "coordinates": [
            51.89534754646133,
            11.047461032867432
        ]
    },
    {
        "id": 6,
        "name": "Hannover Hauptmensa",
        "city": "Hannover",
        "address": "Callinstraße 23, 30167 Hannover",
        "coordinates": [
            52.38620852444954,
            9.714059829711914
        ]
    },
    {
        "id": 7,
        "name": "Hannover, Contine",
        "city": "Hannover",
        "address": "Königsworther Platz 1, 30167 Hannover",
        "coordinates": [
            52.3791768,
            9.723882099999999
        ]
    },
    {
        "id": 8,
        "name": "Mensa PZH",
        "city": "Garbsen",
        "address": "An der Universität 2, 30823 Garbsen",
        "coordinates": [
            52.42584657412015,
            9.618701934814453
        ]
    },
    {
        "id": 9,
        "name": "Mensa Caballus",
        "city": "Hannover",
        "address": "Bischofsholer Damm 15, 30173 Hannover",
        "coordinates": [
            52.36893,
            9.76545
        ]
    },
    {
        "id": 10,
        "name": "Mensa TiHo-Tower",
        "city": "Hannover",
        "address": "Bünteweg 2, 30559 Hannover",
        "coordinates": [
            52.35441215028723,
            9.797573089599608
        ]
    },
    {
        "id": 11,
        "name": "Mensa HMTMH",
        "city": "Hannover",
        "address": "Emmichplatz 1, 30175 Hannover",
        "coordinates": [
            52.3773,
            9.75419
        ]
    },
    {
        "id": 12,
        "name": "Mensa Ricklinger Stadtweg",
        "city": "Hannover",
        "address": "Ricklinger Stadtweg 120 30459 Hannover",
        "coordinates": [
            52.35317363318381,
            9.723544120788574
        ]
    },
    {
        "id": 13,
        "name": "Hannover, Mensa/Cafeteria Blumhardtstraße",
        "city": "Hannover",
        "address": "Blumhardtstraße 2, 30625 Hannover",
        "coordinates": [
            52.373031593389626,
            9.805866479873657
        ]
    },
    {
        "id": 14,
        "name": "Hannover, Mensa Große Pause",
        "city": "Hannover",
        "address": "Expo Plaza 10, 30539 Hannover",
        "coordinates": [
            52.3219941,
            9.8186431
        ]
    },
    {
        "id": 15,
        "name": "Hannover, Cafeteria Herrenhausen",
        "city": "Hannover",
        "address": "Herrenhäuser Straße 8, 30419 Hannover",
        "coordinates": [
            52.39288999999999,
            9.695969999999999
        ]
    },
    {
        "id": 16,
        "name": "Hannover Hauptmensa Marktstand",
        "city": "Hannover",
        "address": "Callinstraße 23, 30167 Hannover",
        "coordinates": [
            52.386581769891826,
            9.714478254318237
        ]
    },
    {
        "id": 17,
        "name": "Hannover, Restaurant c. t.",
        "city": "Hannover",
        "address": "Callinstraße 23, 30167 Hannover",
        "coordinates": [
            52.38665379935076,
            9.714263677597046
        ]
    },
    {
        "id": 20,
        "name": "Backshop FU Rechtswissenschaft",
        "city": "Berlin",
        "address": "Van't-Hoff-Str. 8, 14195 Berlin",
        "coordinates": [
            52.4478323,
            13.2816338
        ]
    },
    {
        "id": 21,
        "name": "Mensa FU Pharmazie",
        "city": "Berlin",
        "address": "Königin-Luise-Str. 2, 14195 Berlin",
        "coordinates": [
            52.45864,
            13.30593
        ]
    },
    {
        "id": 22,
        "name": "Mensa Charité Zahnklinik",
        "city": "Berlin",
        "address": "Aßmannshauser Str. 2-6, 14197 Berlin",
        "coordinates": [
            52.478,
            13.31223
        ]
    },
    {
        "id": 24,
        "name": "Mensa HTW Wilhelminenhof",
        "city": "Berlin",
        "address": "Wilhelminenhofstraße 75 A, Gebäude G, 12459 Berlin",
        "coordinates": [
            52.4550187,
            13.5253585
        ]
    },
    {
        "id": 27,
        "name": "Mensa FU II Otto-von-Simson-Straße",
        "city": "Berlin",
        "address": "Otto-von-Simson-Straße 26, 14195 Berlin",
        "coordinates": [
            52.4521863,
            13.2894363
        ]
    },
    {
        "id": 29,
        "name": "Mensa HWR Badensche Straße",
        "city": "Berlin",
        "address": "Badensche Str. 51, 10825 Berlin",
        "coordinates": [
            52.485607,
            13.3381344
        ]
    },
    {
        "id": 30,
        "name": "Mensa HTW Treskowallee",
        "city": "Berlin",
        "address": "Treskowallee 8, 10318 Berlin",
        "coordinates": [
            52.49222,
            13.5264999
        ]
    },
    {
        "id": 31,
        "name": "Karlsruhe, Mensa Am Adenauerring",
        "city": "Karlsruhe",
        "address": "Adenauerring 7, 76131 Karlsruhe",
        "coordinates": [
            49.01140830621927,
            8.416922092437744
        ]
    },
    {
        "id": 32,
        "name": "Karlsruhe, Mensa Moltke",
        "city": "Karlsruhe",
        "address": "Moltkestraẞe, Karlsruhe",
        "coordinates": [
            49.01481416420907,
            8.39406967163086
        ]
    },
    {
        "id": 33,
        "name": "Karlsruhe, Mensa Erzbergerstraße",
        "city": "Karlsruhe",
        "address": "Erzbergerstraße 121, 76133 Karlsruhe",
        "coordinates": [
            49.026824286827654,
            8.385658264160156
        ]
    },
    {
        "id": 34,
        "name": "Karlsruhe, Mensa Schloss Gottesaue",
        "city": "Karlsruhe",
        "address": "Am Schloss Gottesaue, 76131 Karlsruhe",
        "coordinates": [
            49.00451847204745,
            8.427790403366089
        ]
    },
    {
        "id": 35,
        "name": "Pforzheim, Mensa Tiefenbronner Straße",
        "city": "Pforzheim",
        "address": "Tiefenbronner Straße/K9800, 75175 Pforzheim",
        "coordinates": [
            48.878306332678825,
            8.716846704483032
        ]
    },
    {
        "id": 36,
        "name": "Mensa TU Hardenbergstraße",
        "city": "Berlin",
        "address": "Hardenbergstraße 34, 10623 Berlin",
        "coordinates": [
            52.5097479,
            13.3262225
        ]
    },
    {
        "id": 39,
        "name": "Pforzheim, Mensa Holzgartenstraße",
        "city": "Pforzheim",
        "address": "Holzgartenstraße, 75175 Pforzheim",
        "coordinates": [
            48.88792264330292,
            8.707630634307861
        ]
    },
    {
        "id": 40,
        "name": "Mensa KHS Weißensee",
        "city": "Berlin",
        "address": "Bühringstraße 20, 13086 Berlin",
        "coordinates": [
            52.55804,
            13.4393999
        ]
    },
    {
        "id": 42,
        "name": "Mensa FU Herrenhaus Düppel",
        "city": "Berlin",
        "address": "Oertzenweg 19b, 14163 Berlin",
        "coordinates": [
            52.4299794,
            13.237412
        ]
    },
    {
        "id": 47,
        "name": "Mensa HfS Ernst Busch",
        "city": "Berlin",
        "address": "Zinnowitzer Straße 11, 10115 Berlin",
        "coordinates": [
            52.5320981,
            13.3839222
        ]
    },
    {
        "id": 48,
        "name": "Mensa HU Nord",
        "city": "Berlin",
        "address": "Hannoversche Straße 7, 10115 Berlin",
        "coordinates": [
            52.52799,
            13.3818246
        ]
    },
    {
        "id": 49,
        "name": "Mensa Berliner Hochschule für Technik Luxemburger Straße",
        "city": "Berlin",
        "address": "Luxemburger Straße 9, 13353 Berlin",
        "coordinates": [
            52.544558,
            13.3545556
        ]
    },
    {
        "id": 50,
        "name": "Mensa HU Oase Adlershof",
        "city": "Berlin",
        "address": "Rudower Chaussee 25, Haus 2, 12489 Berlin",
        "coordinates": [
            52.4293844,
            13.5303101
        ]
    },
    {
        "id": 51,
        "name": "Mensa HfM Charlottenstraße",
        "city": "Berlin",
        "address": "Charlottenstraße 55, 10117 Berlin",
        "coordinates": [
            52.5134004,
            13.3911098
        ]
    },
    {
        "id": 52,
        "name": "Mensa FU Lankwitz Malteserstraße",
        "city": "Berlin",
        "address": "Malteser Straße 74, 12249 Berlin",
        "coordinates": [
            52.4275018,
            13.3558306
        ]
    },
    {
        "id": 54,
        "name": "Backshop Katholische HS für Sozialwesen",
        "city": "Berlin",
        "address": "Zinnowitzer Straße 11, 10115 Berlin",
        "coordinates": [
            52.5325083,
            13.3830262
        ]
    },
    {
        "id": 55,
        "name": "Mensa Am Neuen Palais",
        "city": "Potsdam",
        "address": "Am Neuen Palais 10, Haus 12, 14469 Potsdam",
        "coordinates": [
            52.399,
            13.01494
        ]
    },
    {
        "id": 57,
        "name": "Mensa Kiepenheuerallee",
        "city": "Potsdam",
        "address": "Kiepenheuerallee 5, 14469 Potsdam",
        "coordinates": [
            52.41384306852332,
            13.051575422286987
        ]
    },
    {
        "id": 58,
        "name": "Mensa Wildau",
        "city": "Wildau",
        "address": "Bahnhofstr. 1, 15745 Wildau",
        "coordinates": [
            52.31816298649385,
            13.631898164749146
        ]
    },
    {
        "id": 61,
        "name": "Mensa Golm",
        "city": "Potsdam",
        "address": "Karl-Liebknecht-Str. 24/25, 14476 Potsdam OT Golm",
        "coordinates": [
            52.40791044877864,
            12.978951930999754
        ]
    },
    {
        "id": 62,
        "name": "Mensa Griebnitzsee",
        "city": "Potsdam",
        "address": "August-Bebel-Str. 89, 14482 Potsdam",
        "coordinates": [
            52.39353534469226,
            13.127814531326294
        ]
    },
    {
        "id": 63,
        "name": "Leipzig, Mensa am Park",
        "city": "Leipzig",
        "address": "Universitätsstraße 5, 04109 Leipzig",
        "coordinates": [
            51.337462257667475,
            12.378126382827759
        ]
    },
    {
        "id": 64,
        "name": "Leipzig, Mensa Academica",
        "city": "Leipzig",
        "address": "Karl-Liebknecht-Straße, 145 04277 Leipzig",
        "coordinates": [
            51.31321,
            12.373709999999999
        ]
    },
    {
        "id": 65,
        "name": "Leipzig, Mensa Am Elsterbecken",
        "city": "Leipzig",
        "address": "Marschnerstraße 29c, 04109 Leipzig",
        "coordinates": [
            51.33860169398093,
            12.354791164398193
        ]
    },
    {
        "id": 66,
        "name": "Leipzig, Mensa An den Tierkliniken",
        "city": "Leipzig",
        "address": "An den Tierkliniken 5, 04103 Leipzig",
        "coordinates": [
            51.319690089033074,
            12.392503023147581
        ]
    },
    {
        "id": 67,
        "name": "Leipzig, Mensa Liebigstraße",
        "city": "Leipzig",
        "address": "Liebigstraße 25, 04103 Leipzig",
        "coordinates": [
            51.33152332523419,
            12.389799356460571
        ]
    },
    {
        "id": 68,
        "name": "Leipzig, Mensa Peterssteinweg",
        "city": "Leipzig",
        "address": "Straße des 17. Juni 2a, 04107 Leipzig",
        "coordinates": [
            51.33307851507541,
            12.373255491256714
        ]
    },
    {
        "id": 69,
        "name": "Leipzig, Mensa/Cafetaria Schönauer Straße",
        "city": "Leipzig",
        "address": "Schönauer Straße 113, 04207 Leipzig",
        "coordinates": [
            51.31130105668432,
            12.308206558227539
        ]
    },
    {
        "id": 70,
        "name": "Leipzig, Cafeteria Dittrichring",
        "city": "Leipzig",
        "address": "Dittrichring 21, 04109 Leipzig",
        "coordinates": [
            51.34128931096995,
            12.369639873504639
        ]
    },
    {
        "id": 72,
        "name": "Leipzig, Cafeteria Philipp-Rosenthal-Straße",
        "city": "Leipzig",
        "address": "Philipp-Rosenthal-Straße 33, 04103 Leipzig",
        "coordinates": [
            51.32732002668829,
            12.390249967575073
        ]
    },
    {
        "id": 74,
        "name": "Mensa Philosophenweg",
        "city": "Jena",
        "address": "Philosophenweg 20, 07743 Jena, Germany",
        "coordinates": [
            50.93230676956965,
            11.584439277648926
        ]
    },
    {
        "id": 75,
        "name": "Mensa Ernst-Abbe-Platz",
        "city": "Jena",
        "address": "Ernst-Abbe-Platz 8, 07743 Jena, Germany",
        "coordinates": [
            50.92872968132924,
            11.58258318901062
        ]
    },
    {
        "id": 76,
        "name": "Mensa Carl-Zeiss-Promenade",
        "city": "Jena",
        "address": "Carl-Zeiss-Promenade 6, 07745 Jena, Germany",
        "coordinates": [
            50.91647488567261,
            11.566715240478516
        ]
    },
    {
        "id": 78,
        "name": "Dresden, Zeltschloesschen",
        "city": "Dresden",
        "address": "Nürnberger Straße 55, 01187 Dresden, Deutschland",
        "coordinates": [
            51.03155355,
            13.7286415224337
        ]
    },
    {
        "id": 79,
        "name": "Dresden, Alte Mensa",
        "city": "Dresden",
        "address": "Mommsenstr. 13, 01069 Dresden, Deutschland",
        "coordinates": [
            51.02694203447925,
            13.726483583450317
        ]
    },
    {
        "id": 80,
        "name": "Dresden, Mensa Matrix",
        "city": "Dresden",
        "address": "Reichenbachstr. 1, 01069 Dresden, Deutschland",
        "coordinates": [
            51.0340605791208,
            13.734036684036255
        ]
    },
    {
        "id": 81,
        "name": "Dresden, Mensologie",
        "city": "Dresden",
        "address": "Blasewitzer Str. 84, 01307 Dresden, Deutschland",
        "coordinates": [
            51.05263112072602,
            13.78432273864746
        ]
    },
    {
        "id": 82,
        "name": "Dresden, Mensa Siedepunkt",
        "city": "Dresden",
        "address": "Zellescher Weg 17, 01069 Dresden, Deutschland",
        "coordinates": [
            51.02950281223138,
            13.738521388826587
        ]
    },
    {
        "id": 83,
        "name": "Tharandt, Mensa TellerRandt",
        "city": "Tharandt",
        "address": "Piennerstr. 15, 01737 Tharandt",
        "coordinates": [
            50.9804219349962,
            13.581375729352116
        ]
    },
    {
        "id": 84,
        "name": "Dresden, Mensa Palucca Hochschule",
        "city": "Dresden",
        "address": "Basteiplatz 4, 01277 Dresden",
        "coordinates": [
            51.02907,
            13.77088
        ]
    },
    {
        "id": 85,
        "name": "Dresden, Mensa WUeins",
        "city": "Dresden",
        "address": "Teplitzer Straße, 01217 Dresden",
        "coordinates": [
            51.029830068757555,
            13.748949766159058
        ]
    },
    {
        "id": 86,
        "name": "Dresden, Mensa Stimm-Gabel",
        "city": "Dresden",
        "address": "Wettiner Platz 13, 01067 Dresden",
        "coordinates": [
            51.05359,
            13.72512
        ]
    },
    {
        "id": 87,
        "name": "Dresden, Mensa Johannstadt",
        "city": "Dresden",
        "address": "Marschnerstraße 38, 01307 Dresden",
        "coordinates": [
            51.0517855,
            13.7596818
        ]
    },
    {
        "id": 88,
        "name": "Dresden, Mensa U-Boot",
        "city": "Dresden",
        "address": "George-Bähr-Straße/Hettnerstraße 3, 01069 Dresden",
        "coordinates": [
            51.030302393690185,
            13.729278384304424
        ]
    },
    {
        "id": 89,
        "name": "Zittau, Mensa Kraatschn",
        "city": "Zittau",
        "address": "Hochwaldstr. 12, 02763 Zittau",
        "coordinates": [
            50.89029752176493,
            14.804506205659731
        ]
    },
    {
        "id": 90,
        "name": "Zittau, Mensa Mahlwerk",
        "city": "Zittau",
        "address": "Schwenninger Weg 1, 02763 Zittau",
        "coordinates": [
            50.88407747332545,
            14.801866982550518
        ]
    },
    {
        "id": 91,
        "name": "Dresden, Mensa Sport",
        "city": "Dresden",
        "address": "Messering 2a, 01067 Dresden",
        "coordinates": [
            51.06825,
            13.719
        ]
    },
    {
        "id": 93,
        "name": "Aachen, Forum Cafete",
        "city": "Aachen",
        "address": "Eilfschornsteinstraße 15, 52072 Aachen",
        "coordinates": [
            50.77667631568813,
            6.0797202587127686
        ]
    },
    {
        "id": 94,
        "name": "Aachen, Bistro Templergraben",
        "city": "Aachen",
        "address": "Templergraben 55, 52062 Aachen",
        "coordinates": [
            50.77784320464118,
            6.078239679336547
        ]
    },
    {
        "id": 95,
        "name": "Aachen, Mensa Ahorn",
        "city": "Aachen",
        "address": "Ahornstr. 55, 52074 Aachen",
        "coordinates": [
            50.779437453530264,
            6.059550046920776
        ]
    },
    {
        "id": 96,
        "name": "Aachen, Mensa Vita",
        "city": "Aachen",
        "address": "Helmertweg 1, 52074 Aachen",
        "coordinates": [
            50.77845377446704,
            6.047630310058594
        ]
    },
    {
        "id": 97,
        "name": "Aachen, Mensa Bayernallee",
        "city": "Aachen",
        "address": "Bayernallee 9, 52066 Aachen",
        "coordinates": [
            50.75570127243687,
            6.096993684768677
        ]
    },
    {
        "id": 98,
        "name": "Aachen, Mensa EUPS",
        "city": "Aachen",
        "address": "Eupener Str. 70, 52066 Aachen",
        "coordinates": [
            50.75947489522681,
            6.082338094711304
        ]
    },
    {
        "id": 99,
        "name": "Aachen, Gastro Goethe",
        "city": "Aachen",
        "address": "Goethestr. 3, 52064 Aachen",
        "coordinates": [
            50.76401505602129,
            6.080052852630615
        ]
    },
    {
        "id": 100,
        "name": "Mensa Jülich",
        "city": "Jülich",
        "address": "Heinrich-Mußmann-Str. 1, 52428 Jülich",
        "coordinates": [
            50.93570779114204,
            6.373368501663208
        ]
    },
    {
        "id": 102,
        "name": "Bamberg, Mensa Feldkirchenstraße",
        "city": "Bamberg",
        "address": "Feldkirchenstraße 21, 96052 Bamberg",
        "coordinates": [
            49.90763,
            10.90466
        ]
    },
    {
        "id": 103,
        "name": "Mensa Aschaffenburg",
        "city": "Aschaffenburg",
        "address": "Würzburger Straße 45, 63743 Aschaffenburg",
        "coordinates": [
            49.97140799680852,
            9.16157841682434
        ]
    },
    {
        "id": 105,
        "name": "Mensa Schweinfurt",
        "city": "Schweinfurt",
        "address": "Fritz-Drescher-Straße, 97421 Schweinfurt",
        "coordinates": [
            50.0435954,
            10.2127468
        ]
    },
    {
        "id": 106,
        "name": "Würzburg, Mensa Burse",
        "city": "Würzburg",
        "address": "Am Studentenhaus 1, 97072 Würzburg",
        "coordinates": [
            49.78589153344547,
            9.933936595916748
        ]
    },
    {
        "id": 109,
        "name": "Würzburg, Mensa am Studentenhaus",
        "city": "Würzburg",
        "address": "Am Studentenhaus 1, 97070 Würzburg",
        "coordinates": [
            49.78569757629146,
            9.934473037719727
        ]
    },
    {
        "id": 110,
        "name": "Würzburg, Mensa Augenklinik",
        "city": "Würzburg",
        "address": "Röntgenring 12, 97070 Würzburg",
        "coordinates": [
            49.799480454673024,
            9.927273988723755
        ]
    },
    {
        "id": 111,
        "name": "Würzburg, Mensa Josef-Schneider-Straße ",
        "city": "Würzburg",
        "address": "Josef-Schneider-Straße 9E, 97080 Würzburg",
        "coordinates": [
            49.80235,
            9.95462
        ]
    },
    {
        "id": 112,
        "name": "Ulf's Café (HPI Cafeteria)",
        "city": "Potsdam",
        "address": "Prof.-Dr.-Helmert-Str. 2-3, 14482 Potsdam, Germany",
        "coordinates": [
            52.39329310108751,
            13.131183385848999
        ]
    },
    {
        "id": 113,
        "name": "Marburg, Mensa Erlenring",
        "city": "Marburg",
        "address": "Erlenring, 35037 Marburg",
        "coordinates": [
            50.80826701522571,
            8.776381015777588
        ]
    },
    {
        "id": 114,
        "name": "Marburg, Mensa Lahnberge",
        "city": "Marburg",
        "address": "Conradistraße, 35043 Marburg",
        "coordinates": [
            50.81302614961098,
            8.8070547580719
        ]
    },
    {
        "id": 115,
        "name": "Marburg, Philipps Bistro",
        "city": "Marburg",
        "address": "Erlenring, 35037 Marburg",
        "coordinates": [
            50.8072421,
            8.7765003
        ]
    },
    {
        "id": 116,
        "name": "Marburg, Mo's Diner",
        "city": "Marburg",
        "address": "Hans-Meerwein-Straße, 35043 Marburg ",
        "coordinates": [
            50.80904667871219,
            8.81076693534851
        ]
    },
    {
        "id": 117,
        "name": "Hamburg, Mensa Armgartstraße",
        "city": "Hamburg",
        "address": "Armgartstraße 24, 22087 Hamburg",
        "coordinates": [
            53.5652392,
            10.0224859
        ]
    },
    {
        "id": 118,
        "name": "Hamburg, Mensa Bergedorf",
        "city": "Hamburg",
        "address": "Lohbrügger Kirchstraße 65, 21033 Hamburg",
        "coordinates": [
            53.493803,
            10.199175
        ]
    },
    {
        "id": 119,
        "name": "Hamburg, Mensa Berliner Tor",
        "city": "Hamburg",
        "address": "Berliner Tor 7, 20099 Hamburg",
        "coordinates": [
            53.557008396861626,
            10.023329257965088
        ]
    },
    {
        "id": 121,
        "name": "Hamburg, Mensa Botanischer Garten",
        "city": "Hamburg",
        "address": "Ohnhorstraße 18, 22609 Hamburg",
        "coordinates": [
            53.55982524502774,
            9.858319759368896
        ]
    },
    {
        "id": 122,
        "name": "Hamburg, Mensa Bucerius Law School",
        "city": "Hamburg",
        "address": " Jungiusstraße 6, 20355 Hamburg",
        "coordinates": [
            53.559493860860336,
            9.98255968093872
        ]
    },
    {
        "id": 123,
        "name": "Hamburg, Café Jungiusstraße",
        "city": "Hamburg",
        "address": "Jungiusstraße 9, 20355 Hamburg",
        "coordinates": [
            53.55859528688259,
            9.98156189918518
        ]
    },
    {
        "id": 124,
        "name": "Hamburg, Café Alexanderstraße",
        "city": "Hamburg",
        "address": "Alexanderstraße 1, 20099 Hamburg ",
        "coordinates": [
            53.55490649999999,
            10.0185161
        ]
    },
    {
        "id": 125,
        "name": "Hamburg, Mensa Campus",
        "city": "Hamburg",
        "address": "Von-Melle-Park 5, 20146 Hamburg",
        "coordinates": [
            53.56575785690514,
            9.985939264297485
        ]
    },
    {
        "id": 127,
        "name": "Hamburg, Mensa Finkenau",
        "city": "Hamburg",
        "address": "Finkenau 35, 22081 Hamburg",
        "coordinates": [
            53.569727,
            10.034096
        ]
    },
    {
        "id": 128,
        "name": "Hamburg, Mensa Geomatikum",
        "city": "Hamburg",
        "address": "Bundesstraße 55, 20146 Hamburg ",
        "coordinates": [
            53.56816999999999,
            9.974219999999999
        ]
    },
    {
        "id": 129,
        "name": "Hamburg, Mensa Harburg   ",
        "city": "Hamburg",
        "address": "Denickestraße 22,  21073 Hamburg",
        "coordinates": [
            53.46112,
            9.969249999999999
        ]
    },
    {
        "id": 130,
        "name": "Hamburg, Mensa Philosophenturm",
        "city": "Hamburg",
        "address": "Von-Melle-Park 6, 20146 Hamburg",
        "coordinates": [
            53.5670258367962,
            9.985038042068481
        ]
    },
    {
        "id": 131,
        "name": "Hamburg, Mensa Stellingen",
        "city": "Hamburg",
        "address": "Vogt-Kölln-Straße 30, 22527 Hamburg ",
        "coordinates": [
            53.59934999999999,
            9.93191
        ]
    },
    {
        "id": 132,
        "name": "Hamburg, Mensa Studierendenhaus",
        "city": "Hamburg",
        "address": "Von-Melle-Park 2, 20146 Hamburg ",
        "coordinates": [
            53.56568,
            9.9862
        ]
    },
    {
        "id": 133,
        "name": "Mensa Leopoldstraße",
        "city": "München",
        "address": "Leopoldstraße 13a, München ",
        "coordinates": [
            48.1564026393375,
            11.582057476043701
        ]
    },
    {
        "id": 134,
        "name": "Mensa Martinsried",
        "city": "München",
        "address": "Großhaderner Straße 6, Planegg-Martinsried ",
        "coordinates": [
            48.1090332,
            11.4532863
        ]
    },
    {
        "id": 136,
        "name": "StuBistro Schellingstraße",
        "city": "München",
        "address": "Schellingstr. 3, München",
        "coordinates": [
            48.1493011,
            11.5790907
        ]
    },
    {
        "id": 137,
        "name": "StuBistro Goethestraße",
        "city": "München",
        "address": "Goethestr. 70, München ",
        "coordinates": [
            48.131811762020284,
            11.558164358139038
        ]
    },
    {
        "id": 138,
        "name": "Mensa Arcisstraße",
        "city": "München",
        "address": "Arcisstr. 17, München",
        "coordinates": [
            48.14742,
            11.56722
        ]
    },
    {
        "id": 140,
        "name": "Mensa Weihenstephan",
        "city": "Freising",
        "address": "Am Forum 3, Freising",
        "coordinates": [
            48.39831,
            11.72344
        ]
    },
    {
        "id": 141,
        "name": "Mensa Lothstraße",
        "city": "München",
        "address": "Lothstr. 13 d, München ",
        "coordinates": [
            48.1533615,
            11.5517815
        ]
    },
    {
        "id": 142,
        "name": "Mensa Pasing",
        "city": "München",
        "address": "Am Stadtpark 20, München",
        "coordinates": [
            48.141570774769974,
            11.450554132461548
        ]
    },
    {
        "id": 145,
        "name": "StuCafé Akademie Weihenstephan",
        "city": "Freising",
        "address": "Alte Akademie 1, Freising",
        "coordinates": [
            48.394786024915206,
            11.729380039368356
        ]
    },
    {
        "id": 147,
        "name": "Mensa Nordhäuser Straße",
        "city": "Erfurt",
        "address": "Nordhäuser Straße + 63, 99089 + Erfurt, Deutschland",
        "coordinates": [
            50.989367704946844,
            11.014244556427
        ]
    },
    {
        "id": 148,
        "name": "Mensa Altonaer Straße",
        "city": "Erfurt",
        "address": "Altonaer Straße 25, 99089 Erfurt, Deutschland",
        "coordinates": [
            50.9850134,
            11.0427588964954
        ]
    },
    {
        "id": 149,
        "name": "NANOteria",
        "city": "Ilmenau",
        "address": "Gustav-Kirchhoff-Str. + 5, 98693 + Ilmenau, Deutschland",
        "coordinates": [
            50.68380186313215,
            10.940794944763184
        ]
    },
    {
        "id": 150,
        "name": "Mensa Ehrenberg",
        "city": "Ilmenau",
        "address": "Max-Planck-Ring + 1, 98693 + Ilmenau, Deutschland",
        "coordinates": [
            50.68262583133858,
            10.933789014816284
        ]
    },
    {
        "id": 151,
        "name": "Mensa am Park",
        "city": "Weimar",
        "address": "Marienstr. + 15b, 99423 + Weimar, Deutschland",
        "coordinates": [
            50.97533197150808,
            11.330809593200684
        ]
    },
    {
        "id": 152,
        "name": "Mensa Berufsakademie Gera ",
        "city": "Gera",
        "address": "Weg der Freundschaft, 07546 + Gera, Deutschland",
        "coordinates": [
            50.903425,
            12.070735
        ]
    },
    {
        "id": 153,
        "name": "Mensa 1 (Mittag)",
        "city": "Braunschweig",
        "address": "Katharinenstr. 1, 38106 Braunschweig",
        "coordinates": [
            52.27467662468465,
            10.526061058044434
        ]
    },
    {
        "id": 154,
        "name": "Mensa 1 (Abend)",
        "city": "Braunschweig",
        "address": "Katharinenstr. 1, 38106 Braunschweig",
        "coordinates": [
            52.2746239,
            10.5265772203059
        ]
    },
    {
        "id": 155,
        "name": "Mensa 2",
        "city": "Braunschweig",
        "address": "Beethovenstraße 15, 38106 Braunschweig",
        "coordinates": [
            52.2801204,
            10.5440898
        ]
    },
    {
        "id": 156,
        "name": "Kantina Kreativa",
        "city": "Braunschweig",
        "address": "Johannes-Selenka-Platz 1, 38118 Braunschweig",
        "coordinates": [
            52.2576831,
            10.5034393170219
        ]
    },
    {
        "id": 157,
        "name": "Magdeburg, Mensa UniCampus Oben",
        "city": "Magdeburg",
        "address": "Pfälzer Str. 1, 39106 Magdeburg, Deutschland",
        "coordinates": [
            52.13958590374171,
            11.647599935531616
        ]
    },
    {
        "id": 158,
        "name": "Mensa Clausthal",
        "city": "Clausthal-Zellerfeld",
        "address": "Leibnizstr. 3, 38678 Clausthal-Zellerfeld, Deutschland",
        "coordinates": [
            51.799753,
            10.3516566
        ]
    },
    {
        "id": 159,
        "name": "Mensa Universität",
        "city": "Hildesheim",
        "address": "Universitätsplatz 1, 31141 Hildesheim",
        "coordinates": [
            52.13362345,
            9.97594376214166
        ]
    },
    {
        "id": 160,
        "name": "Mensa Hohnsen (HAWK)",
        "city": "Hildesheim",
        "address": "Hohnsen 1, 31134 Hildesheim",
        "coordinates": [
            52.14364515,
            9.95883546613537
        ]
    },
    {
        "id": 161,
        "name": "Bistro-Shop Lübecker Straße",
        "city": "Hildesheim",
        "address": "Lübecker Straße 3, 31141 Hildesheim",
        "coordinates": [
            52.1366129,
            9.9636546
        ]
    },
    {
        "id": 162,
        "name": "Mensa HAWK",
        "city": "Holzminden",
        "address": "Haarmannplatz 3, 37603 Holzminden, Deutschland",
        "coordinates": [
            51.8272784,
            9.4504558
        ]
    },
    {
        "id": 163,
        "name": "Mensa Campus",
        "city": "Lüneburg",
        "address": "Scharnhorststrasse 1, 21335 Lüneburg",
        "coordinates": [
            53.22778425,
            10.4041636186719
        ]
    },
    {
        "id": 166,
        "name": "Mensa Ostfalia",
        "city": "Wolfenbüttel",
        "address": "Salzdahlumer Str. 46/48, 38302 Wolfenbüttel, Deutschland",
        "coordinates": [
            52.17599765019241,
            10.549267530441284
        ]
    },
    {
        "id": 167,
        "name": "Uni Mensa",
        "city": "Bremen",
        "address": "Leobener Straße 3, 28359 Bremen, Germany",
        "coordinates": [
            53.10801533493082,
            8.851000070571898
        ]
    },
    {
        "id": 168,
        "name": "Mensa Neustadtswall",
        "city": "Bremen",
        "address": "Neustadtswall 33, 28199 Bremen, Germany",
        "coordinates": [
            53.07283522613672,
            8.793203830718994
        ]
    },
    {
        "id": 169,
        "name": "Mensa Werderstrasse",
        "city": "Bremen",
        "address": "Werderstrasse 73, 28199 Bremen",
        "coordinates": [
            53.069692746347016,
            8.806502223014832
        ]
    },
    {
        "id": 170,
        "name": "Mensa am Airport",
        "city": "Bremen",
        "address": "Flughafenallee 10, 28199 Bremen, Germany",
        "coordinates": [
            53.0551731,
            8.78341777303855
        ]
    },
    {
        "id": 171,
        "name": "Mensa Bremerhaven",
        "city": "Bremerhaven",
        "address": "An der Karlstadt 8, 27568 Bremerhaven, Germany",
        "coordinates": [
            53.53945941659496,
            8.582746982574461
        ]
    },
    {
        "id": 172,
        "name": "Cafeteria GW2",
        "city": "Bremen",
        "address": "Enrique-Schmidt-Straße, 28359 Bremen, Germany",
        "coordinates": [
            53.10737126912262,
            8.8539719581604
        ]
    },
    {
        "id": 178,
        "name": "360 Grad",
        "city": "Braunschweig",
        "address": "Katharinenstr. 1, 38106 Braunschweig, Germany",
        "coordinates": [
            52.27480135427685,
            10.526554584503174
        ]
    },
    {
        "id": 179,
        "name": "Göttingen, Zentralmensa",
        "city": "Göttingen",
        "address": "Platz der Göttinger Sieben 4, Göttingen",
        "coordinates": [
            51.5419691,
            9.93475312364836
        ]
    },
    {
        "id": 180,
        "name": "Göttingen, Nordmensa",
        "city": "Göttingen",
        "address": "Grisebachstraße 10, Göttingen",
        "coordinates": [
            51.5582308,
            9.95124557772739
        ]
    },
    {
        "id": 182,
        "name": "Göttingen, Mensa Italia",
        "city": "Göttingen",
        "address": "Roedererstrasse 15a, Göttingen",
        "coordinates": [
            51.54361405,
            9.9460498906231
        ]
    },
    {
        "id": 183,
        "name": "Göttingen, Bistro HAWK",
        "city": "Göttingen",
        "address": "Von-Ossietzky-Straße 99, Göttingen",
        "coordinates": [
            51.52183530406683,
            9.969781637191772
        ]
    },
    {
        "id": 184,
        "name": "Hamburg, Cafe am Mittelweg",
        "city": "Hamburg",
        "address": "Mittelweg 177, 20148 Hamburg",
        "coordinates": [
            53.564464350812784,
            9.994951486587524
        ]
    },
    {
        "id": 185,
        "name": "Hamburg, Cafe CFEl",
        "city": "Hamburg",
        "address": "Notkestrasse 85, 22607 Hamburg",
        "coordinates": [
            53.57218019782744,
            9.880560636520386
        ]
    },
    {
        "id": 186,
        "name": "Hamburg, Mensa HCU",
        "city": "Hamburg",
        "address": "Überseeallee 16, 20457 Hamburg",
        "coordinates": [
            53.54019895,
            10.0047980912567
        ]
    },
    {
        "id": 187,
        "name": "Aachen, Mensa Academica",
        "city": "Aachen",
        "address": "Pontwall 3, 52062 Aachen, Germany",
        "coordinates": [
            50.7816791,
            6.07641034479823
        ]
    },
    {
        "id": 188,
        "name": "Kochwerk Elbe",
        "city": "Hamburg",
        "address": "Wandsbeker Straße 3-7, 22179 Hamburg",
        "coordinates": [
            53.60070576980124,
            10.07396936416626
        ]
    },
    {
        "id": 193,
        "name": "Konstanz, HTWG",
        "city": "Konstanz",
        "address": "Brauneggerstraße 55, 78462 Konstanz",
        "coordinates": [
            47.66813294880924,
            9.170236587524414
        ]
    },
    {
        "id": 194,
        "name": "Mensa UNI Regensburg",
        "city": "Regensburg",
        "address": "Albertus-Magnus-Str. 2, 93051 Regensburg, Germany",
        "coordinates": [
            48.99805706684204,
            12.092599868774412
        ]
    },
    {
        "id": 195,
        "name": "Mensa OTH Regensburg",
        "city": "Regensburg",
        "address": "Seybothstraße, 93006 Regensburg, Germany",
        "coordinates": [
            49.003596470946974,
            12.095990180969238
        ]
    },
    {
        "id": 196,
        "name": "Mensa UNI Passau",
        "city": "Passau",
        "address": "Innstraße 29, 94032 Passau, Germany",
        "coordinates": [
            48.56754877257058,
            13.453037738800049
        ]
    },
    {
        "id": 197,
        "name": "Mensa HS Landshut",
        "city": "Landshut",
        "address": "Am Lurzenhof 1, 84036 Landshut, Germany",
        "coordinates": [
            48.555974996812544,
            12.196787595748901
        ]
    },
    {
        "id": 198,
        "name": "Mensa TH Deggendorf",
        "city": "Deggendorf",
        "address": "Edlmairstraße 6-8, 94469 Deggendorf, Germany",
        "coordinates": [
            48.83013347740409,
            12.954103946685791
        ]
    },
    {
        "id": 199,
        "name": "Kochwerk Alster",
        "city": "Hamburg",
        "address": "Wandsbeker Straße 3-7, 22179 Hamburg",
        "coordinates": [
            53.60103683105782,
            10.070847272872925
        ]
    },
    {
        "id": 200,
        "name": "Dresden, Mensa Brühl",
        "city": "Dresden",
        "address": "Brühlsche Terrasse 1, 01067 Dresden",
        "coordinates": [
            51.0530039,
            13.7419394
        ]
    },
    {
        "id": 201,
        "name": "Mensa NW 1",
        "city": "Bremen",
        "address": "Otto-Hahn-Allee, 28359 Bremen, Germany",
        "coordinates": [
            53.10364193848922,
            8.850656747817993
        ]
    },
    {
        "id": 202,
        "name": "Mensa Rüsselsheim",
        "city": "Rüsselsheim am Main",
        "address": "Am Brückweg 26, 65428 Rüsselsheim, Germany",
        "coordinates": [
            49.9852611,
            8.4250932
        ]
    },
    {
        "id": 203,
        "name": "Uni-Bielefeld Mensa",
        "city": "Bielefeld",
        "address": "Universitätsstraße 25, 33615 Bielefeld, Germany",
        "coordinates": [
            52.040336075514254,
            8.49268913269043
        ]
    },
    {
        "id": 204,
        "name": "mensa accent",
        "city": "Wiesbaden",
        "address": "Kurt-Schumacher-Ring 18, 65197 Wiesbaden, Germany",
        "coordinates": [
            50.080353155723834,
            8.216807842254639
        ]
    },
    {
        "id": 205,
        "name": "Mensa Pi x Gaumen",
        "city": "Frankfurt am Main",
        "address": "Max-von-Laue-Str. 9, 60438 Frankfurt am Main, Germany",
        "coordinates": [
            50.17187518988534,
            8.631101846694946
        ]
    },
    {
        "id": 206,
        "name": "Mensa Casino",
        "city": "Frankfurt am Main",
        "address": "Grüneburgplatz 1, 60323 Frankfurt am Main, Germany",
        "coordinates": [
            50.12625135,
            8.66986795320106
        ]
    },
    {
        "id": 207,
        "name": "Cafeteria LEVEL",
        "city": "Frankfurt am Main",
        "address": "Ruth-Moufang-Straße 2, 60438 Frankfurt am Main, Germany",
        "coordinates": [
            50.174087818759794,
            8.628612756729126
        ]
    },
    {
        "id": 208,
        "name": "Cafeteria Darwins",
        "city": "Frankfurt am Main",
        "address": "Max-von-Laue-Str. 13, 60438 Frankfurt am Main, Germany",
        "coordinates": [
            50.17257609583351,
            8.627325296401978
        ]
    },
    {
        "id": 209,
        "name": "Mensa Anbau Casino",
        "city": "Frankfurt am Main",
        "address": "Grüneburgplatz 1, 60323 Frankfurt am Main, Germany",
        "coordinates": [
            50.12701645702743,
            8.666560649871828
        ]
    },
    {
        "id": 210,
        "name": "Cafeteria DASEIN",
        "city": "Frankfurt am Main",
        "address": "Grüneburgplatz 1, 60323 Frankfurt am Main, Germany",
        "coordinates": [
            50.12636990880318,
            8.668577671051024
        ]
    },
    {
        "id": 211,
        "name": "Cafeteria Bockenheim",
        "city": "Frankfurt am Main",
        "address": "Bockenheimer Landstraße 133 60325 Frankfurt am Main ",
        "coordinates": [
            50.1195207,
            8.6519106
        ]
    },
    {
        "id": 212,
        "name": "Café HOCHFORM",
        "city": "Frankfurt am Main",
        "address": "Ginnheimer Landstraße 39, 60487 Frankfurt am Main, Germany",
        "coordinates": [
            50.131521417613946,
            8.645038604736328
        ]
    },
    {
        "id": 213,
        "name": "Mensa essWERK",
        "city": "Frankfurt am Main",
        "address": "Kleiststraße 7,  60318 Frankfurt am Main, Germany",
        "coordinates": [
            50.130386620172224,
            8.691548109054565
        ]
    },
    {
        "id": 214,
        "name": "Mensa HfMDK",
        "city": "Frankfurt am Main",
        "address": "Eschersheimer Landstraße 35, 60322 Frankfurt am Main, Germany",
        "coordinates": [
            50.12011915,
            8.6763037189319
        ]
    },
    {
        "id": 215,
        "name": "Cafeteria HfG",
        "city": "Frankfurt am Main",
        "address": "Schlossstr. 31, 63065 Offenbach, Germany",
        "coordinates": [
            50.10739946155254,
            8.764756321907043
        ]
    },
    {
        "id": 216,
        "name": "Mensa POINT",
        "city": "Frankfurt am Main",
        "address": "Bertramstraße 27, 65185 Wiesbaden, Germany",
        "coordinates": [
            50.0796656,
            8.23059584604042
        ]
    },
    {
        "id": 229,
        "name": "StuBistro Rosenheim",
        "city": "Rosenheim",
        "address": "Hochschulstr. 1, Rosenheim",
        "coordinates": [
            47.86715636957847,
            12.107834815979004
        ]
    },
    {
        "id": 230,
        "name": "StuCafé Adalbertstraße",
        "city": "München",
        "address": "Adalbertstraße 5, München",
        "coordinates": [
            48.151728773944136,
            11.579697132110596
        ]
    },
    {
        "id": 232,
        "name": "StuCafé Karlstraße",
        "city": "München",
        "address": "Karlstr. 6, München",
        "coordinates": [
            48.14289880221191,
            11.5683513879776
        ]
    },
    {
        "id": 235,
        "name": "Mensa Burg",
        "city": "Halle (Saale)",
        "address": "Seebener Str. 1, 06114 Halle",
        "coordinates": [
            51.5098801,
            11.9618436
        ]
    },
    {
        "id": 236,
        "name": "Mensa Franckesche Stiftungen",
        "city": "Halle (Saale)",
        "address": "Franckeplatz 1 Haus 26/27, 06108 Halle",
        "coordinates": [
            51.4782,
            11.9782
        ]
    },
    {
        "id": 237,
        "name": "Mensa Merseburg",
        "city": "Merseburg",
        "address": "Eberhard-Leibnitz-Straße 2, 06217 Merseburg",
        "coordinates": [
            51.3462092,
            11.9791999
        ]
    },
    {
        "id": 238,
        "name": "Heidemensa",
        "city": "Halle (Saale)",
        "address": "Theodor-Lieser-Str. 7, 06120 Halle",
        "coordinates": [
            51.4950807,
            11.9369368
        ]
    },
    {
        "id": 239,
        "name": "Mensa Neuwerk",
        "city": "Halle (Saale)",
        "address": "Neuwerk 7, 06108 Halle",
        "coordinates": [
            51.4906101,
            11.9573148
        ]
    },
    {
        "id": 240,
        "name": "Weinbergmensa",
        "city": "Halle (Saale)",
        "address": "Wolfgang-Langenbeck-Str. 3, 06120 Halle (Saale)",
        "coordinates": [
            51.4985582,
            11.9438616
        ]
    },
    {
        "id": 241,
        "name": "Mensa Bernburg",
        "city": "Bernburg (Saale)",
        "address": "Strenzfelder Allee 20, 06406 Bernburg",
        "coordinates": [
            51.8248655,
            11.706142
        ]
    },
    {
        "id": 243,
        "name": "Harzmensa",
        "city": "Halle (Saale)",
        "address": "Harz 41, 06108 Halle",
        "coordinates": [
            51.4903546,
            11.9672061
        ]
    },
    {
        "id": 244,
        "name": "Mensa Fasanerieallee",
        "city": "Köthen (Anhalt)",
        "address": "Fasanerieallee 1a, 06366 Köthen",
        "coordinates": [
            51.7539594,
            11.9671158
        ]
    },
    {
        "id": 245,
        "name": "Mensa Tulpe",
        "city": "Halle (Saale)",
        "address": "Universitätsring 5, 06108 Halle",
        "coordinates": [
            51.4870671,
            11.9689776
        ]
    },
    {
        "id": 256,
        "name": "Erlangen Südmensa",
        "city": "Erlangen",
        "address": "Erwin-Rommel-Straße 60, 91058 Erlangen",
        "coordinates": [
            49.57414515,
            11.0290237490766
        ]
    },
    {
        "id": 259,
        "name": "Würz­burg, Mensateria Campus Nord",
        "city": "Würzburg",
        "address": " Emil Hilb Weg 12 , 97074 Würz­burg ",
        "coordinates": [
            49.78546435,
            9.9691371
        ]
    },
    {
        "id": 261,
        "name": "Mensa / Mensacafe Saarbrücken",
        "city": "Saarbrücken",
        "address": "Campus D 4.1",
        "coordinates": [
            49.25734420743913,
            7.043212652206422
        ]
    },
    {
        "id": 264,
        "name": "Mensa Langemarckplatz",
        "city": "Erlangen",
        "address": "Langemarckplatz 4, 91054 Erlangen",
        "coordinates": [
            49.5935493,
            11.0105753
        ]
    },
    {
        "id": 265,
        "name": "Mensa Insel Schütt",
        "city": "Nürnberg",
        "address": "Hintere Insel Schütt 5, 90403 Nürnberg, Germany",
        "coordinates": [
            49.45398905633699,
            11.08471155166626
        ]
    },
    {
        "id": 266,
        "name": "Mensa Regensburger Straße",
        "city": "Nürnberg",
        "address": "Regensburger Str. 160, 90478 Nürnberg, Germany",
        "coordinates": [
            49.43843605,
            11.1130078522348
        ]
    },
    {
        "id": 267,
        "name": "Ausgabemensa St. Paul",
        "city": "Nürnberg",
        "address": "Dutzendteichstraße 24, 90478 Nürnberg, Germany",
        "coordinates": [
            49.43679421715311,
            11.114119291305542
        ]
    },
    {
        "id": 268,
        "name": "Mensateria Ohm",
        "city": "Nürnberg",
        "address": "Wollentorstr. 4, 90489 Nürnberg, Germany",
        "coordinates": [
            49.45253836573686,
            11.094603538513182
        ]
    },
    {
        "id": 269,
        "name": "Cafeteria \"Come IN\" Hohfederstraße",
        "city": "Nürnberg",
        "address": "Hohfederstraße 40, 90489 Nürnberg",
        "coordinates": [
            49.45818355,
            11.1023575039193
        ]
    },
    {
        "id": 270,
        "name": "Cafeteria Bärenschanzstraße",
        "city": "Nürnberg",
        "address": "Bärenschanzstr. 4, 90429 Nürnberg, Germany",
        "coordinates": [
            49.4509359,
            11.0604708
        ]
    },
    {
        "id": 271,
        "name": "Cafeteria Eichstätt",
        "city": "Eichstätt",
        "address": "Universitätsallee 2, 85072 Eichstätt",
        "coordinates": [
            48.88681506271628,
            11.191999912261963
        ]
    },
    {
        "id": 272,
        "name": "Cafeteria Ingolstadt",
        "city": "Ingolstadt",
        "address": "Esplanade 10, 85049 Ingolstadt, Germany",
        "coordinates": [
            48.767384298560685,
            11.43201470375061
        ]
    },
    {
        "id": 274,
        "name": "Mensa Ansbach",
        "city": "Ansbach",
        "address": "Residenzstraße 8, 91522 Ansbach, Germany",
        "coordinates": [
            49.305958293050516,
            10.565907955169676
        ]
    },
    {
        "id": 277,
        "name": "Heilbronn, Mensa Bildungscampus/Europaplatz",
        "city": "Heilbronn",
        "address": "Mensa am Bildungscampus Bildungscampus 8 74076 Heilbronn",
        "coordinates": [
            49.14857,
            9.21608
        ]
    },
    {
        "id": 278,
        "name": "Heilbronn, Mensa Sontheim",
        "city": "Heilbronn",
        "address": "Mensa Sontheim Max-Planck-Straße 39 74081 Heilbronn",
        "coordinates": [
            49.121569,
            9.212312
        ]
    },
    {
        "id": 279,
        "name": "Heidelberg, Mensa Im Neuenheimer Feld 304",
        "city": "Heidelberg",
        "address": "Zentralmensa INF 304 Im Neuenheimer Feld 304 69120 Heidelberg",
        "coordinates": [
            49.41585929924838,
            8.671045303344727
        ]
    },
    {
        "id": 280,
        "name": "Künzelsau, Mensa Reinhold-Würth-Hochschule",
        "city": "Künzelsau",
        "address": "Mensa Künzelsau Daimlerstraße 35 74653 Künzelsau",
        "coordinates": [
            49.275663,
            9.712211
        ]
    },
    {
        "id": 281,
        "name": "Heidelberg, Triplex-Mensa am Uniplatz",
        "city": "Heidelberg",
        "address": "Triplex-Mensa Grabengasse 14 69117 Heidelberg",
        "coordinates": [
            49.410596,
            8.705868
        ]
    },
    {
        "id": 282,
        "name": "Heidelberg, zeughaus-Mensa im Marstall",
        "city": "Heidelberg",
        "address": "zeughaus-Mensa Marstallhof 3 69117 Heidelberg",
        "coordinates": [
            49.412862,
            8.703958
        ]
    },
    {
        "id": 283,
        "name": "Mannheim, Mensaria Metropol",
        "city": "Mannheim",
        "address": "Mannheim, Mensaria Metropol Hans-Thoma-Straße 51 68163 Mannheim",
        "coordinates": [
            49.472954,
            8.535328
        ]
    },
    {
        "id": 285,
        "name": "Mannheim, Mensa am Schloss",
        "city": "Mannheim",
        "address": "Mannheim, Mensa am Schloss Bismarckstraße 10 68159 Mannheim",
        "coordinates": [
            49.4847363821899,
            8.459182977676392
        ]
    },
    {
        "id": 286,
        "name": "Mannheim, Cafeteria Musikhochschule",
        "city": "Mannheim",
        "address": "Mannheim, Cafeteria Musikhochschule N7 17 68161 Mannheim",
        "coordinates": [
            49.483681,
            8.471395
        ]
    },
    {
        "id": 287,
        "name": "Mannheim, Mensaria Wohlgelegen",
        "city": "Mannheim",
        "address": "Mannheim, Mensaria Wohlgelegen Käfertaler Straße 258 68167 Mannheim",
        "coordinates": [
            49.50073,
            8.49943
        ]
    },
    {
        "id": 289,
        "name": "Mannheim, Mensa Hochschule Mannheim",
        "city": "Mannheim",
        "address": "Mannheim, Mensa Hochschule Mannheim Bau J, Paul-Wittsack-Straße 10 68163 Mannheim",
        "coordinates": [
            49.46992,
            8.48243
        ]
    },
    {
        "id": 296,
        "name": "Chemnitz, Reichenhainer Straße, Mensa",
        "city": "Chemnitz",
        "address": "Reichenhainer Straße 55, 09126 Chemnitz",
        "coordinates": [
            50.8148941,
            12.930733
        ]
    },
    {
        "id": 297,
        "name": "Chemnitz, Straße der Nationen, Mensa",
        "city": "Chemnitz",
        "address": "Straße der Nationen 62, 09111 Chemnitz",
        "coordinates": [
            50.83853213060906,
            12.928360104560852
        ]
    },
    {
        "id": 298,
        "name": "Zwickau, Ring, Cafeteria",
        "city": "Zwickau",
        "address": "Klosterstraße 9, 08056 Zwickau",
        "coordinates": [
            50.715895,
            12.4959928
        ]
    },
    {
        "id": 300,
        "name": "Abendmensa OTH Regensburg",
        "city": "Regensburg",
        "address": "Seybothstr. 2, 93053 Regensburg",
        "coordinates": [
            49.0035999900676,
            12.096011638641356
        ]
    },
    {
        "id": 303,
        "name": "Chemnitz, Reichenhainer Straße, Cafeteria",
        "city": "Chemnitz",
        "address": "Reichenhainer Straße 55, 09126 Chemnitz",
        "coordinates": [
            50.8148941,
            12.930733
        ]
    },
    {
        "id": 304,
        "name": "Chemnitz, Straße der Nationen, Cafeteria",
        "city": "Chemnitz",
        "address": "Straße der Nationen 62, 09111 Chemnitz",
        "coordinates": [
            50.8385693949961,
            12.928376197814941
        ]
    },
    {
        "id": 305,
        "name": "Zwickau, Ring, Mensa",
        "city": "Zwickau",
        "address": "Klosterstraße 9, 08056 Zwickau",
        "coordinates": [
            50.715895,
            12.4959928
        ]
    },
    {
        "id": 306,
        "name": "Zwickau, Scheffelberg, Mensa",
        "city": "Zwickau",
        "address": "Scheffelstraße 39, 08066 Zwickau",
        "coordinates": [
            50.7334417,
            12.5051553
        ]
    },
    {
        "id": 310,
        "name": "Mensa WZ Straubing",
        "city": "Straubing",
        "address": "Schulgasse 16, 94315 Straubing, Germany",
        "coordinates": [
            48.88376775,
            12.584384277159
        ]
    },
    {
        "id": 313,
        "name": "Cafeteria Nikolakloster Passau",
        "city": "Passau",
        "address": "Innstraße 40, 94032 Passau, Germany",
        "coordinates": [
            48.5700129,
            13.4565799
        ]
    },
    {
        "id": 314,
        "name": "Cafeteria Prüfening Regensburg",
        "city": "Regensburg",
        "address": "Prüfeningerstraße 58, 93049 Regensburg, Germany",
        "coordinates": [
            49.01700603428523,
            12.070358991622923
        ]
    },
    {
        "id": 315,
        "name": "Cafeteria Philosophie-Theologie (PT) Regensburg",
        "city": "Regensburg",
        "address": "Universitätsstraße 31, 93053 Regensburg, Germany",
        "coordinates": [
            48.999123467614204,
            12.095931172370909
        ]
    },
    {
        "id": 316,
        "name": "Cafeteria Chemie Regensburg",
        "city": "Regensburg",
        "address": "Universitätsstraße 31, 93053 Regensburg, Germany",
        "coordinates": [
            48.995730614968735,
            12.0956951379776
        ]
    },
    {
        "id": 319,
        "name": "Cafeteria Sport Regensburg",
        "city": "Regensburg",
        "address": "Universitätsstr. 31, 93053 Regensburg, Germany",
        "coordinates": [
            48.99253112623852,
            12.095024585723875
        ]
    },
    {
        "id": 334,
        "name": "Mensa Ruhr-Universität Bochum",
        "city": "Bochum",
        "address": "Universitätsstraße 150, 44801 Bochum",
        "coordinates": [
            51.44309805795517,
            7.262413501739503
        ]
    },
    {
        "id": 339,
        "name": "Mensa Universitätsstraße, Düsseldorf",
        "city": "Düsseldorf",
        "address": "Universitätsstraße 1, 40225 Düsseldorf",
        "coordinates": [
            51.1884571,
            6.7956763
        ]
    },
    {
        "id": 340,
        "name": "Mensa Kamp-Lintfort",
        "city": "Düsseldorf",
        "address": "Friedrich-Heinrich-Allee 25, 47475 Kamp-Lintfort",
        "coordinates": [
            51.5003446,
            6.54579814394026
        ]
    },
    {
        "id": 341,
        "name": "Mensa Campus Derendorf",
        "city": "Düsseldorf",
        "address": "Münsterstraße 156, 40476 Düsseldorf",
        "coordinates": [
            51.2483706,
            6.7913357
        ]
    },
    {
        "id": 342,
        "name": "Mensa Georg-Glock-Straße, Düsseldorf",
        "city": "Düsseldorf",
        "address": "Georg-Glock-Straße 15, 40474 Düsseldorf",
        "coordinates": [
            51.2493273,
            6.7689235
        ]
    },
    {
        "id": 343,
        "name": "Mensa Obergath, Krefeld",
        "city": "Düsseldorf",
        "address": "Obergath 73, 47805 Krefeld",
        "coordinates": [
            51.3162506,
            6.5746935
        ]
    },
    {
        "id": 344,
        "name": "Mensa Frankenring, Krefeld",
        "city": "Düsseldorf",
        "address": "Frankenring 20, 47798 Krefeld",
        "coordinates": [
            51.3252342,
            6.5543038
        ]
    },
    {
        "id": 345,
        "name": "Mensa Sommerdeich, Kleve",
        "city": "Düsseldorf",
        "address": "Sommerdeich 16, 47533 Kleve",
        "coordinates": [
            51.796541,
            6.1431551
        ]
    },
    {
        "id": 346,
        "name": "Mensa Rheydter Straße, Mönchengladbach",
        "city": "Düsseldorf",
        "address": "Rheydter Str. 325, 41065 Mönchengladbach",
        "coordinates": [
            51.1900959,
            6.4357315
        ]
    },
    {
        "id": 347,
        "name": "restaurant & bar campus vita, Düsseldorf",
        "city": "Düsseldorf",
        "address": "Universitätsstraße 1, 40225 Düsseldorf",
        "coordinates": [
            51.1884571,
            6.7956763
        ]
    },
    {
        "id": 348,
        "name": "Essenausgabe Süd, Düsseldorf",
        "city": "Düsseldorf",
        "address": "Universitätsstraße 1, 40225 Düsseldorf",
        "coordinates": [
            51.1884571,
            6.7956763
        ]
    },
    {
        "id": 349,
        "name": "Kunstakademie, Düsseldorf",
        "city": "Düsseldorf",
        "address": "Eiskellerstraße 1, 40213 Düsseldorf",
        "coordinates": [
            51.2305377,
            6.7738521
        ]
    },
    {
        "id": 350,
        "name": "Musikhochschule, Düsseldorf",
        "city": "Düsseldorf",
        "address": "Fischerstraße 110, 40476 Düsseldorf",
        "coordinates": [
            51.24245785,
            6.77223222984645
        ]
    },
    {
        "id": 361,
        "name": "Kaiserslautern, TU Mensa",
        "city": "Kaiserslautern",
        "address": "Erwin-Schrödinger-Straße 30, 67663 Kaiserslautern",
        "coordinates": [
            49.4250257,
            7.7506083
        ]
    },
    {
        "id": 368,
        "name": "Rostock, Mensa Süd",
        "city": "Rostock",
        "address": "Albert-Einstein-Str. 6a, 18055 Rostock",
        "coordinates": [
            54.07597135,
            12.1048938282805
        ]
    },
    {
        "id": 369,
        "name": "Rostock, Mensa E1nstein",
        "city": "Rostock",
        "address": "Erich-Schlesinger-Str. 19, 18059 Rostock, Germany",
        "coordinates": [
            54.0786156,
            12.1149428
        ]
    },
    {
        "id": 370,
        "name": "Rostock, Mensa St.-Georg-Straße",
        "city": "Rostock",
        "address": "St.-Georg-Str. 104 - 107, 18055 Rostock, Germany",
        "coordinates": [
            54.0818814,
            12.1382220768994
        ]
    },
    {
        "id": 371,
        "name": "Rostock, Mensa Multiple Choice",
        "city": "Rostock",
        "address": "Schillingallee 70, 18057 Rostock, Germany",
        "coordinates": [
            54.0849705,
            12.098655708333
        ]
    },
    {
        "id": 372,
        "name": "Rostock, Mensa Ulme",
        "city": "Rostock",
        "address": "Ulmenstraße 69, 18057 Rostock, Germany",
        "coordinates": [
            54.0858416,
            12.1090426959145
        ]
    },
    {
        "id": 374,
        "name": "Wismar, Campus Mensa",
        "city": "Wismar",
        "address": "Philipp-Müller-Str. 14 a, 23966 Wismar, Germany",
        "coordinates": [
            53.8861137,
            11.4338828
        ]
    },
    {
        "id": 376,
        "name": "Cafeteria FH Lampingstraße",
        "city": "Bielefeld",
        "address": "Lampingstr. 3, 33615 Bielefeld, Germany",
        "coordinates": [
            52.0280421,
            8.51148270115395
        ]
    },
    {
        "id": 377,
        "name": "Mensa Hochschule OWL Lemgo",
        "city": "Lemgo",
        "address": "Liebigstraße 87, 32657 Lemgo, Germany",
        "coordinates": [
            52.0162144,
            8.9057225
        ]
    },
    {
        "id": 378,
        "name": "Mensa Hochschule OWL Höxter",
        "city": "Höxter",
        "address": "An der Wilhelmshöhe 44, 37671 Höxter, Germany",
        "coordinates": [
            51.76673425,
            9.36932735112902
        ]
    },
    {
        "id": 379,
        "name": "Uni-Bielefeld Westend",
        "city": "Bielefeld",
        "address": "Universitätsstraße 25, 33615 Bielefeld, Germany",
        "coordinates": [
            52.0380023,
            8.49237953274578
        ]
    },
    {
        "id": 381,
        "name": "Casino Cafeteria",
        "city": "Frankfurt am Main",
        "address": "Theodor-W.-Adorno-Platz 2a, 60323 Frankfurt am Main, Germany",
        "coordinates": [
            50.1268884,
            8.6669763
        ]
    },
    {
        "id": 383,
        "name": "Köln, Mensa Südstadt",
        "city": "Köln",
        "address": "Köln, Mensa Südstadt Mainzer Straße 5 50678 Köln",
        "coordinates": [
            50.925942,
            6.964058
        ]
    },
    {
        "id": 384,
        "name": "Köln, Mensa Zülpicher Straße",
        "city": "Köln",
        "address": "Köln, Mensa Zülpicher Straße Zülpicher Straße 70  50937 Köln",
        "coordinates": [
            50.927269,
            6.933479
        ]
    },
    {
        "id": 385,
        "name": "Köln, Mensa Kunsthochschule Medien",
        "city": "Köln",
        "address": "Köln, Mensa Kunsthochschule Medien Filzengraben 2-4 50676 Köln",
        "coordinates": [
            50.933591,
            6.959581
        ]
    },
    {
        "id": 386,
        "name": "Köln, Mensa Robert-Koch-Straße",
        "city": "Köln",
        "address": "Köln, Mensa Robert-Koch-Straße Robert-Koch-Straße 10 50931 Köln",
        "coordinates": [
            50.929517,
            6.923275
        ]
    },
    {
        "id": 387,
        "name": "Köln, Mensa Deutz",
        "city": "Köln",
        "address": "Köln, Mensa Deutz Betzdorfer Strauße 2  50679 Köln",
        "coordinates": [
            50.934014,
            6.988374
        ]
    },
    {
        "id": 388,
        "name": "Köln, Mensa Musikhochschule",
        "city": "Köln",
        "address": "Köln, Mensa Musikhochschule Dagobertstraße 38 50668 Köln",
        "coordinates": [
            50.948299,
            6.960454
        ]
    },
    {
        "id": 389,
        "name": "Köln, Mensa am Sportpark Müngersdorf",
        "city": "Köln",
        "address": "Köln, Mensa am Sportpark Müngersdorf Am Sportpark Müngersdorf 2 50933 Köln",
        "coordinates": [
            50.935958,
            6.870339
        ]
    },
    {
        "id": 390,
        "name": "Gummersbach, Mensa Gummersbach",
        "city": "Gummersbach",
        "address": "Gummersbach, Mensa Gummersbach Steinmüllerallee 1 51643 Gummersbach",
        "coordinates": [
            51.028892,
            7.562499
        ]
    },
    {
        "id": 391,
        "name": "Köln, Café Himmelsblick, Claudiusstraße",
        "city": "Köln",
        "address": "Köln, Café Himmelsblick, Claudiusstraße Claudiusstraße 1 50678 Köln",
        "coordinates": [
            50.92297,
            6.967381
        ]
    },
    {
        "id": 392,
        "name": "Stuttgart Mitte, Mensa 1 (Holzgartenstraße)",
        "city": "Stuttgart",
        "address": "Stuttgart Mitte, Mensa 1 (Holzgartenstraße) Holzgartenstraße 11 70174 Stuttgart",
        "coordinates": [
            48.78099,
            9.16966
        ]
    },
    {
        "id": 393,
        "name": "Ludwigsburg, Mensa Ludwigsburg",
        "city": "Ludwigsburg",
        "address": "Ludwigsburg, Mensa Ludwigsburg Reuteallee 46 71634 Ludwigsburg",
        "coordinates": [
            48.9089367,
            9.183871
        ]
    },
    {
        "id": 394,
        "name": "Stuttgart Nord, Mensa Kunstakademie",
        "city": "Stuttgart",
        "address": "Stuttgart Nord, Mensa Kunstakademie Am Weißenhof 1 70191 Stuttgart",
        "coordinates": [
            48.8005536,
            9.1748127
        ]
    },
    {
        "id": 395,
        "name": "Stuttgart Mitte, Mensa Musikhochschule",
        "city": "Stuttgart",
        "address": "Stuttgart Mitte, Mensa Musikhochschule Urbanstraße 25 70182 Stuttgart",
        "coordinates": [
            48.7784,
            9.1864
        ]
    },
    {
        "id": 399,
        "name": "Stuttgart Vaihingen, Mensa 2",
        "city": "Stuttgart",
        "address": "Stuttgart Vaihingen, Mensa 2 Pfaffenwaldring 45 70569 Stuttgart",
        "coordinates": [
            48.746359,
            9.1030635
        ]
    },
    {
        "id": 563,
        "name": "Mensa Veggie 2.0 – Die vegane Mensa",
        "city": "Berlin",
        "address": "Hardenbergstraße 34, 10623 Berlin",
        "coordinates": [
            52.5097479,
            13.3262225
        ]
    },
    {
        "id": 565,
        "name": "Mensa TU Marchstraße",
        "city": "Berlin",
        "address": "Marchstraße 23, 10587 Berlin",
        "coordinates": [
            52.5165831,
            13.32359
        ]
    },
    {
        "id": 576,
        "name": "Backshop HU „c.t.“",
        "city": "Berlin",
        "address": "Unter den Linden 6, 10117 Berlin",
        "coordinates": [
            52.5184517,
            13.3935844
        ]
    },
    {
        "id": 579,
        "name": "Backshop HWR Alt-Friedrichsfelde",
        "city": "Berlin",
        "address": "Alt-Friedrichsfelde 60, Haus 1, 1. Obergeschoss, 10315 Berlin",
        "coordinates": [
            52.5085,
            13.5257792
        ]
    },
    {
        "id": 773,
        "name": "Wilhelm Gastronomie im FMI Gebäude der TUM Garching",
        "city": "Garching bei München",
        "address": "Boltzmannstraße 3, 85748 Garching bei München",
        "coordinates": [
            48.2624312,
            11.6691121
        ]
    },
    {
        "id": 774,
        "name": "Konradhofer Catering - Betriebskantine IPP",
        "city": "Garching bei München",
        "address": "Gießenbachstraße, 85748 Garching bei München",
        "coordinates": [
            48.2618476,
            11.6720407
        ]
    },
    {
        "id": 775,
        "name": "Hauptmensa TU Dortmund",
        "city": "Dortmund",
        "address": "Vogelpothsweg 85, 44227 Dortmund",
        "coordinates": [
            51.493040772259704,
            7.414687871932984
        ]
    },
    {
        "id": 777,
        "name": "Mensa Homburg",
        "city": "Homburg",
        "address": "Universitätsklinikum des Saarlandes, Gebäude 74",
        "coordinates": [
            49.304525498537664,
            7.343578979167953
        ]
    },
    {
        "id": 778,
        "name": "Cafeteria Hochschule für Musik Saar",
        "city": "Saarbrücken",
        "address": "Bismarckstraße 1, 66111 Saarbrücken",
        "coordinates": [
            49.2302973,
            6.99777870717347
        ]
    },
    {
        "id": 780,
        "name": "Mensagarten Saarbrücken",
        "city": "Saarbrücken",
        "address": "Campus Saarbrücken, Gebäude A1.7",
        "coordinates": null
    },
    {
        "id": 789,
        "name": "StuBistro Oettingenstraße",
        "city": "München",
        "address": "Oettingenstraße 67, München",
        "coordinates": [
            48.149864119259455,
            11.594309806823732
        ]
    },
    {
        "id": 795,
        "name": "Mannheim Eppelheim, Mensa DHBW",
        "city": "Eppelheim",
        "address": "Mannheim Eppelheim, Mensa DHBW Handelsstraße 13 69214 Eppelheim",
        "coordinates": [
            49.408024,
            8.6266422
        ]
    },
    {
        "id": 798,
        "name": "Mensa Schlossgarten",
        "city": "Osnabrück",
        "address": "Ritterstraße 10, 49074 Osnabrück, Deutschland",
        "coordinates": [
            52.27040934828536,
            8.045409321784975
        ]
    },
    {
        "id": 799,
        "name": "Mensa Vechta",
        "city": "Vechta",
        "address": "Universitätsstraße 3, 49377 Vechta, Deutschland",
        "coordinates": [
            52.72031796232492,
            8.295176625251772
        ]
    },
    {
        "id": 802,
        "name": "Mensa Uni Augsburg",
        "city": "Augsburg",
        "address": "Universitätsstraße 4, 86159 Augsburg",
        "coordinates": [
            48.33346,
            10.898379
        ]
    },
    {
        "id": 803,
        "name": "Mensa HS Augsburg",
        "city": "Augsburg",
        "address": "Friedberger Straße 2, 86161 Augsburg",
        "coordinates": [
            48.358618,
            10.907243
        ]
    },
    {
        "id": 804,
        "name": "Mensa HS Neu-Ulm",
        "city": "Neu-Ulm",
        "address": "Wileystraße 1, 89231 Neu-Ulm",
        "coordinates": [
            48.380452,
            10.009697
        ]
    },
    {
        "id": 805,
        "name": "Cafeteria HS Augsburg",
        "city": "Augsburg",
        "address": "An der Hochschule 1, 86161 Augsburg",
        "coordinates": [
            48.3561293,
            10.9059509
        ]
    },
    {
        "id": 828,
        "name": "Mensa HTW Saar Alt-Saarbrücken",
        "city": "Saarbrücken",
        "address": "Campus Alt-Saarbrücken, Goebenstraße 40, 66117 Saarbrücken",
        "coordinates": [
            49.2353486,
            6.9723138
        ]
    },
    {
        "id": 829,
        "name": "Mensa HTW Saar Rotenbühl",
        "city": "Saarbrücken",
        "address": "Gebäude B, Waldhausweg 14, 66123 Saarbrücken",
        "coordinates": [
            49.24363355,
            7.01566541106453
        ]
    },
    {
        "id": 830,
        "name": "Würz­burg, In­te­rims­men­sa Spra­chen­zen­trum",
        "city": "Würzburg",
        "address": "Mat­thi­as-Lexer-Weg 25, 97074 Würz­burg",
        "coordinates": [
            49.787876086128485,
            9.971053004264833
        ]
    },
    {
        "id": 831,
        "name": "Würz­burg, Essensausgabe Philo",
        "city": "Würzburg",
        "address": "Am Hub­land, 97074 Würz­burg",
        "coordinates": [
            49.78343930370019,
            9.966364502906801
        ]
    },
    {
        "id": 833,
        "name": "Mensa am Wartenberg 2",
        "city": "Eisenach",
        "address": "Am Wartenberg 2, 99817 Eisenach",
        "coordinates": [
            50.98338995,
            10.319536438315
        ]
    },
    {
        "id": 834,
        "name": "Cafeteria Schlüterstraße",
        "city": "Erfurt",
        "address": "Schlüterstraße 1, 99089 Erfurt",
        "coordinates": [
            50.98541075,
            11.0243185426912
        ]
    },
    {
        "id": 835,
        "name": "Cafeteria Leipziger Straße",
        "city": "Erfurt",
        "address": "Leipziger Straße 77, 99089 Erfurt",
        "coordinates": [
            50.9914735,
            11.0545256069606
        ]
    },
    {
        "id": 836,
        "name": "Mensa an der Berufsakademie",
        "city": "Gera",
        "address": "Weg der Freundschaft 4A, 07546 Gera",
        "coordinates": [
            50.90428995,
            12.0700715455521
        ]
    },
    {
        "id": 837,
        "name": "Cafeteria Röntgenbau",
        "city": "Ilmenau",
        "address": "Weimarer Straße 25, 98693 Ilmenau",
        "coordinates": [
            50.6882649,
            10.9194799
        ]
    },
    {
        "id": 838,
        "name": "Cafeteria EAH",
        "city": "Jena",
        "address": "Moritz-von-Rohr-Straße 2, 07745 Jena",
        "coordinates": [
            50.9188478,
            11.5704278
        ]
    },
    {
        "id": 839,
        "name": "Pasta Basta",
        "city": "Jena",
        "address": "Ernst-Abbe-Platz 5, 07743 Jena",
        "coordinates": [
            50.9281815,
            11.5827519717057
        ]
    },
    {
        "id": 840,
        "name": "Caféteria Uni-Hauptgebäude",
        "city": "Jena",
        "address": "Schlossgasse 1, 07743 Jena",
        "coordinates": [
            50.9293058,
            11.5899888
        ]
    },
    {
        "id": 841,
        "name": "Cafeteria Bibliothek",
        "city": "Jena",
        "address": "Bibliotheksplatz 2, 07743 Jena",
        "coordinates": [
            50.9304936,
            11.58775498522
        ]
    },
    {
        "id": 842,
        "name": "Mensa Weinberghof",
        "city": "Nordhausen",
        "address": "Weinberghof 4, 99734 Nordhausen",
        "coordinates": [
            51.49729755,
            10.8101843516085
        ]
    },
    {
        "id": 843,
        "name": "Mensa Blechhammer",
        "city": "Schmalkalden",
        "address": "Blechhammer 9a, 98574 Schmalkalden",
        "coordinates": [
            50.7183167,
            10.4640081
        ]
    },
    {
        "id": 844,
        "name": "Cafeteria Anna-Amalia-Bibliothek",
        "city": "Weimar",
        "address": "Platz der Demokratie 4, 99423 Weimar",
        "coordinates": [
            50.9794813,
            11.3308193
        ]
    },
    {
        "id": 845,
        "name": "Cafeteria Coudraystraße",
        "city": "Weimar",
        "address": "Coudraystraße 13, 99423 Weimar",
        "coordinates": [
            50.9819795,
            11.3221885
        ]
    },
    {
        "id": 846,
        "name": "Cafeteria Mensa Ehrenberg",
        "city": "Ilmenau",
        "address": "Max-Planck-Ring 1, 98693 Ilmenau, Germany",
        "coordinates": [
            50.68242215,
            10.9337807664547
        ]
    },
    {
        "id": 847,
        "name": "Cafeteria Zur Rosen",
        "city": "Jena",
        "address": "Johannisstraße 13, 07743 Jena",
        "coordinates": [
            50.9293718,
            11.5847347
        ]
    },
    {
        "id": 849,
        "name": "Mensa Süd TU Dortmund",
        "city": "Dortmund",
        "address": "August-Schmidt-Strasse 2, 44227 Dortmund, Deutschland",
        "coordinates": [
            51.48389955,
            7.41444941759405
        ]
    },
    {
        "id": 850,
        "name": "Vital TU Dortmund",
        "city": "Dortmund",
        "address": "Vogelpothsweg 85, 44227 Dortmund, Deutschland",
        "coordinates": [
            51.4927869362164,
            7.414720058441162
        ]
    },
    {
        "id": 851,
        "name": "Archeteria TU Dortmund",
        "city": "Dortmund",
        "address": "August-Schmidt-Strasse 2, 44227 Dortmund, Germany",
        "coordinates": [
            51.48389955,
            7.41444941759405
        ]
    },
    {
        "id": 852,
        "name": "Restaurant Calla TU Dortmund",
        "city": "Dortmund",
        "address": "Vogelpothsweg 85, 44227 Dortmund, Germany",
        "coordinates": [
            51.4929606136619,
            7.415149211883546
        ]
    },
    {
        "id": 853,
        "name": "food fakultät TU Dortmund",
        "city": "Dortmund",
        "address": "Vogelpothsweg 74, 44227 Dortmund, Germany",
        "coordinates": [
            51.49352840069311,
            7.416361570358277
        ]
    },
    {
        "id": 854,
        "name": "Mensa Max-Ophüls-Platz",
        "city": "Dortmund",
        "address": "Max-Ophuels-Platz 2, 44137 Dortmund, Germany",
        "coordinates": [
            51.49880725,
            7.453349749125
        ]
    },
    {
        "id": 855,
        "name": "Mensa Sonnenstraße",
        "city": "Dortmund",
        "address": "Sonnenstrasse 96, 44139 Dortmund, Germany",
        "coordinates": [
            51.50606285,
            7.45693408344336
        ]
    },
    {
        "id": 856,
        "name": "Mensa kostBar",
        "city": "Dortmund",
        "address": "Emil-Figge-Strasse 40A, 44227 Dortmund, Germany",
        "coordinates": [
            51.4943314,
            7.4206827
        ]
    },
    {
        "id": 858,
        "name": "Mensa der FernUni Hagen",
        "city": "Hagen",
        "address": "Universitätsstrasse 31, 58097 Hagen, Germany",
        "coordinates": [
            51.3767823,
            7.4957718
        ]
    },
    {
        "id": 859,
        "name": "Mensa Snack it Hagen",
        "city": "Hagen",
        "address": "Haldener Strasse 182, 58095 Hagen, Germany",
        "coordinates": [
            51.3662827,
            7.49749
        ]
    },
    {
        "id": 860,
        "name": "Mensa Canapé Iserlohn",
        "city": "Iserlohn",
        "address": "Frauenstuhlweg 31, 58644 Iserlohn, Germany",
        "coordinates": [
            51.36790945,
            7.68640121930496
        ]
    },
    {
        "id": 861,
        "name": "Mensa da Vinci Meschede",
        "city": "Meschede",
        "address": "Lindenstrasse 53, 59872 Meschede, Germany",
        "coordinates": [
            51.36195495,
            8.29518090571558
        ]
    },
    {
        "id": 862,
        "name": "Mensa Soest",
        "city": "Soest",
        "address": "Lübecker Ring 2, 59494 Soest, Germany",
        "coordinates": [
            51.561606,
            8.1148521
        ]
    },
    {
        "id": 864,
        "name": "Q-West Ruhr-Universität Bochum",
        "city": "Bochum",
        "address": "Universitätsstraße 150, 44801 Bochum",
        "coordinates": [
            51.44409443883437,
            7.258835434913636
        ]
    },
    {
        "id": 865,
        "name": "Ulm, Mensa in der Uni",
        "city": "Ulm",
        "address": "James-Franck-Ring 8, 89081 Ulm",
        "coordinates": [
            48.424488,
            9.9571384
        ]
    },
    {
        "id": 866,
        "name": "Ulm, Uni Bistro",
        "city": "Ulm",
        "address": "Festpunkt 025, Oberer Eselsberg, 89081 Ulm",
        "coordinates": [
            48.421834,
            9.955425
        ]
    },
    {
        "id": 867,
        "name": "Ulm, Cafeteria Uni West",
        "city": "Ulm",
        "address": "Uni West gegenüber der Bibliothek, 89081 Ulm",
        "coordinates": [
            48.4209553,
            9.948925
        ]
    },
    {
        "id": 868,
        "name": "Ulm, Hochschule Ulm Mensa",
        "city": "Ulm",
        "address": "Hochschule Ulm, Prittwitzstraße, 89075 Ulm",
        "coordinates": [
            48.40886075,
            9.997429466452386
        ]
    },
    {
        "id": 869,
        "name": "Ulm, WestSide Diner",
        "city": "Ulm",
        "address": "An der Westseite der Uni West vor dem Gebäude 45, 89081 Ulm",
        "coordinates": [
            48.4217,
            9.9487
        ]
    },
    {
        "id": 879,
        "name": "Rostock, Mensa Kantilene",
        "city": "Rostock",
        "address": "Beim St.-Katharinenstift 8, 18055 Rostock",
        "coordinates": [
            54.0915964,
            12.1444158538776
        ]
    },
    {
        "id": 880,
        "name": "Görlitz, MiO - Mensa im Osten",
        "city": "Görlitz",
        "address": "Furtstraße 1a, 02826 Görlitz",
        "coordinates": [
            51.148972974663046,
            14.998558208027177
        ]
    },
    {
        "id": 881,
        "name": "Technologiepark Böblingen",
        "city": "Böblingen",
        "address": "Herrenberger Str. 130, 71034 Böblingen, Germany",
        "coordinates": [
            48.676680406834954,
            8.979895793817475
        ]
    },
    {
        "id": 895,
        "name": "Bistro NFF",
        "city": "Braunschweig",
        "address": "Hermann-Blenk-Str. 42, 38108 Braunschweig, Deutschland",
        "coordinates": [
            52.3145194,
            10.5428791
        ]
    },
    {
        "id": 900,
        "name": "Bistro Wolfsburg",
        "city": "Wolfsburg",
        "address": "Robert-Koch-Platz 8a, 38440 Wolfsburg",
        "coordinates": [
            52.425938,
            10.7878045
        ]
    },
    {
        "id": 902,
        "name": "Interimsmensa Markusplatz",
        "city": "Bamberg",
        "address": "Mar­kus­platz 3, 96047 Bam­berg",
        "coordinates": [
            49.89571257228142,
            10.883867981181485
        ]
    },
    {
        "id": 903,
        "name": "Cafeteria Mensa 2",
        "city": "Braunschweig",
        "address": "Beethovenstr. 15, 38106 Braunschweig",
        "coordinates": [
            52.2801204,
            10.5440898
        ]
    },
    {
        "id": 904,
        "name": "Mensa Stralsund",
        "city": "Stralsund",
        "address": "Zur Schwedenschanze 15, 18435 Stralsund, Germany",
        "coordinates": [
            54.34009114601057,
            13.07429293722324
        ]
    },
    {
        "id": 911,
        "name": "StuBistro Akademiestraße",
        "city": "München",
        "address": "Akademiestraße 2, 80799 München",
        "coordinates": [
            48.1531426,
            11.5800343322674
        ]
    },
    {
        "id": 912,
        "name": "StuBistro Arcisstraße",
        "city": "München",
        "address": "Arcisstraße 12, 80333 München",
        "coordinates": [
            48.1461238,
            11.5676922962502
        ]
    },
    {
        "id": 943,
        "name": "Mannheim, Mensa Wagon",
        "city": "Mannheim",
        "address": "Mannheim, Mensa Wagon Bismarckstraße 42 68161 Mannheim",
        "coordinates": [
            49.4830472,
            8.4640314
        ]
    },
    {
        "id": 946,
        "name": "Bistro W",
        "city": "Potsdam",
        "address": "August-Bebel-Str. 26-53, 14482 Potsdam",
        "coordinates": [
            52.3878775,
            13.1210205
        ]
    },
    {
        "id": 1091,
        "name": "Kaiserslautern, TU Mensaria Atrium",
        "city": "Kaiserslautern",
        "address": "Trippstadter Straße, 67663 Kaiserslautern",
        "coordinates": [
            49.42459722440876,
            7.750554097607171
        ]
    },
    {
        "id": 1153,
        "name": "Köln, Bistro Uni E-Raum",
        "city": "Köln",
        "address": "Köln, Bistro Uni E-Raum Albertus Magnus Platz 50931 Köln",
        "coordinates": [
            50.927952,
            6.927956
        ]
    },
    {
        "id": 1154,
        "name": "Köln, Bistro Lindenthal",
        "city": "Köln",
        "address": "Köln, Bistro Lindenthal Gronewaldstraße 2 50931 Köln",
        "coordinates": [
            50.9341609,
            6.9195527
        ]
    },
    {
        "id": 1155,
        "name": "Köln, Bistro PhilCafé",
        "city": "Köln",
        "address": "Köln, Bistro PhilCafé Universitätsstraße 38 50931 Köln",
        "coordinates": [
            50.92811,
            6.92776
        ]
    },
    {
        "id": 1156,
        "name": "Kaiserslautern, Hochschule Mensa",
        "city": "Kaiserslautern",
        "address": "Morlauterer Straße 31, 67657 Kaiserslautern",
        "coordinates": [
            49.451278450000004,
            7.763146622630776
        ]
    },
    {
        "id": 1157,
        "name": "Zweibrücken, Hochschule Kaiserslautern Mensa",
        "city": "Zweibrücken",
        "address": "Amerikastraße, Gebäude M, 66482 Zweibrücken",
        "coordinates": [
            49.26023,
            7.36128
        ]
    },
    {
        "id": 1158,
        "name": "Pirmasens, Hochschule Kaiserslautern Mensa",
        "city": "Pirmasens",
        "address": "Carl-Schurz-Straße 10-16, 66953 Pirmasens",
        "coordinates": [
            49.2121733,
            7.6014034
        ]
    },
    {
        "id": 1168,
        "name": "Mensa Steinfurt",
        "city": "Steinfurt",
        "address": "Stegerwaldstraße 39, 48565 Steinfurt",
        "coordinates": [
            52.142757950000004,
            7.321645708207431
        ]
    },
    {
        "id": 1169,
        "name": "Mensa Am Ring",
        "city": "Münster",
        "address": "Domagkstraße 61, 48149 Münster",
        "coordinates": [
            51.96551495,
            7.600188393878772
        ]
    },
    {
        "id": 1170,
        "name": "Mensa Aasee",
        "city": "Münster",
        "address": "Bismarckallee 11, 48151 Münster",
        "coordinates": [
            51.9556033,
            7.6171766
        ]
    },
    {
        "id": 1171,
        "name": "Mensa Da Vinci",
        "city": "Münster",
        "address": "Leonardo-Campus 8, 48149 Münster",
        "coordinates": [
            51.975125,
            7.6018753958676095
        ]
    },
    {
        "id": 1172,
        "name": "Bistro Denkpause",
        "city": "Münster",
        "address": "Corrensstraße 25, 48149 Münster",
        "coordinates": [
            51.9682696,
            7.595463298034186
        ]
    },
    {
        "id": 1178,
        "name": "Dresden, Cafeteria Grill Cube",
        "city": "Dresden",
        "address": "George-Bähr-Straße 1A-E, 01069 Dresden",
        "coordinates": [
            51.0284783,
            13.728717266405024
        ]
    },
    {
        "id": 1202,
        "name": "Stuttgart Mitte, Mensa Central",
        "city": "Stuttgart",
        "address": "Stuttgart Mitte, Mensa Central Ossietzkystraße 3 70174 Stuttgart",
        "coordinates": [
            48.7844048,
            9.1769449
        ]
    },
    {
        "id": 1213,
        "name": "Mensa Bispinghof",
        "city": "Münster",
        "address": "Bispinghof 9, 48143 Münster",
        "coordinates": [
            51.960441,
            7.619889281925753
        ]
    },
    {
        "id": 1214,
        "name": "Bistro Oeconomicum",
        "city": "Münster",
        "address": "",
        "coordinates": [
            51.961653,
            7.619791
        ]
    },
    {
        "id": 1216,
        "name": "Mensa I",
        "city": "Kiel",
        "address": "Westring 385, 24118 Kiel",
        "coordinates": [
            54.337464121688505,
            10.122903412237703
        ]
    },
    {
        "id": 1218,
        "name": "Mensa II",
        "city": "Kiel",
        "address": "Leibnizstraße 14, 24118 Kiel",
        "coordinates": [
            54.346414080501006,
            10.113333431595441
        ]
    },
    {
        "id": 1219,
        "name": "Schwentine Mensa",
        "city": "Kiel",
        "address": "Grenzstraße 14, 24149 Kiel",
        "coordinates": [
            54.32977105,
            10.181043219375
        ]
    },
    {
        "id": 1220,
        "name": "Mensa Heide",
        "city": "Heide",
        "address": "Fritz-Thiedemann-Ring 20a, 25746 Heide",
        "coordinates": [
            54.1942421,
            9.121949576786967
        ]
    },
    {
        "id": 1238,
        "name": "Bistro Katholische Hochschule",
        "city": "Münster",
        "address": "Piusallee 89, 48143 Münster",
        "coordinates": [
            51.9686444,
            7.6388739583881575
        ]
    },
    {
        "id": 1239,
        "name": "Mensa Flensburg",
        "city": "Flensburg",
        "address": "Thomas-Fincke-Straße 20, 24943 Flensburg",
        "coordinates": [
            54.7753025418037,
            9.45286096104567
        ]
    },
    {
        "id": 1240,
        "name": "Mensa Lübeck",
        "city": "Lübeck",
        "address": "Mönkhofer Weg 241, 23562 Lübeck",
        "coordinates": [
            53.835208046607306,
            10.7002917891715
        ]
    },
    {
        "id": 1241,
        "name": "Cafeteria Musikhochschule",
        "city": "Lübeck",
        "address": "Große Petersgrube 17-19, 23552 Lübeck",
        "coordinates": [
            53.8655806,
            10.6832279
        ]
    },
    {
        "id": 1256,
        "name": "Achern, Gemeinschaftsschule GMS",
        "city": "Achern",
        "address": "Kirchstraße 15-19, 77855 Achern/Baden",
        "coordinates": [
            48.6304076,
            8.0724898
        ]
    },
    {
        "id": 1258,
        "name": "Wismar, Evangelische Schule Robert Lansemann",
        "city": "Wismar",
        "address": "Lenensruher Weg 33, 23970 Wismar",
        "coordinates": [
            53.8822625,
            11.4734369
        ]
    },
    {
        "id": 1259,
        "name": "Wismar, Hort Schwalbennest",
        "city": "Wismar",
        "address": "Willi-Schröder-Straße 3, 23968 Wismar",
        "coordinates": [
            53.90468145,
            11.424449796830729
        ]
    },
    {
        "id": 1260,
        "name": "Wismar, Freie Schule",
        "city": "Wismar",
        "address": "Willi-Schröder-Straße 1-3, 23968 Wismar",
        "coordinates": [
            53.9042453,
            11.4230333
        ]
    },
    {
        "id": 1261,
        "name": "Hamburg, Albert-Schweitzer-Schule!",
        "city": "Hamburg",
        "address": "Schluchtweg 1, 22337 Hamburg",
        "coordinates": [
            53.6325539,
            10.0481995955396
        ]
    },
    {
        "id": 1262,
        "name": "Boxberg, Medien- und Kulturzentrum Cafeteria",
        "city": "Boxberg",
        "address": "Seebuckel 20, 97944 Boxberg",
        "coordinates": [
            49.482314200000005,
            9.639468069573896
        ]
    },
    {
        "id": 1263,
        "name": "Lauda-Königshofen, Cafeteria im Schulzentrum",
        "city": "Lauda-Königshofen",
        "address": "Becksteiner Str. 80, 97922 Lauda-Königshofen",
        "coordinates": [
            49.56072935,
            9.704884754009953
        ]
    },
    {
        "id": 1270,
        "name": "Uffenheim, Christian von Bomhard Schule",
        "city": "Uffenheim",
        "address": "Im Krämersgarten 10, 97215 Uffenheim",
        "coordinates": [
            49.5417666,
            10.225052131810209
        ]
    },
    {
        "id": 1271,
        "name": "Würzburg, Dag-Hammarskjöld-Gymnasium",
        "city": "Würzburg",
        "address": "Frauenlandplatz 5, 97074 Würzburg",
        "coordinates": [
            49.787512899999996,
            9.947420713070645
        ]
    },
    {
        "id": 1274,
        "name": "Kirchberg, August-Ludwig-Schlözer Schule GHRS",
        "city": "Kirchberg an der Jagst",
        "address": "Schulstraße 1, 74592 Kirchberg a.d. Jagst",
        "coordinates": [
            49.195536000000004,
            9.98474636611671
        ]
    },
    {
        "id": 1279,
        "name": "Hansestadt Uelzen, Ganztagesgrundschulen",
        "city": "Uelzen",
        "address": "Hagenskamp 6, 29525 Uelzen",
        "coordinates": [
            52.9732427,
            10.5417976
        ]
    },
    {
        "id": 1282,
        "name": "Offenburg, Klosterschulen",
        "city": "Offenburg",
        "address": "Lange Straße 9, 77652 Offenburg",
        "coordinates": [
            48.471543249999996,
            7.945134686545057
        ]
    },
    {
        "id": 1283,
        "name": "Eschweiler, Kubiz Gastronomie",
        "city": "Eschweiler",
        "address": "Kopfstraße 22, 52249 Eschweiler",
        "coordinates": [
            50.8051276,
            6.2749954489554565
        ]
    },
    {
        "id": 1284,
        "name": "Külsheim, PAGS Pater-Alois-Grimm-Schule",
        "city": "Külsheim",
        "address": " Kirchbergweg 11, 97900 Külsheim",
        "coordinates": [
            49.67125825,
            9.523418178944445
        ]
    },
    {
        "id": 1285,
        "name": "Langenau, FSR Friedrich-Schiller-Realschule / LUS Ludwig-Uhland-Schule",
        "city": "Langenau",
        "address": "Karlstraße 33, 89129 Langenau",
        "coordinates": [
            48.5008543,
            10.1200502
        ]
    },
    {
        "id": 1286,
        "name": "Langenau, ATS Albecker-Tor-Schulzentrum",
        "city": "Langenau",
        "address": "Albecker-Tor-Straße 38, 89129 Langenau",
        "coordinates": [
            48.4918111,
            10.1122686
        ]
    },
    {
        "id": 1287,
        "name": "Langenau, Robert-Bosch-Grundschule Albeck",
        "city": "Langenau",
        "address": "Werdenbergstraße 2, 89129 Langenau",
        "coordinates": [
            48.4827399,
            10.061365
        ]
    },
    {
        "id": 1288,
        "name": "Sigmaringen, Liebfrauenschule",
        "city": "Sigmaringen",
        "address": "Liebfrauenweg 2, 72488 Sigmaringen",
        "coordinates": [
            48.0859044,
            9.2316767
        ]
    },
    {
        "id": 1290,
        "name": "Neukloster, Mäck Pom Catering",
        "city": "Neukloster",
        "address": "August-Bebel-Allee 6, 23992 Neukloster",
        "coordinates": [
            53.863236900000004,
            11.69329322872862
        ]
    },
    {
        "id": 1291,
        "name": "Wuppertal, Gesamtschule Langerfeld",
        "city": "Wuppertal",
        "address": "Heinrich-Böll-Straße 240/250, 42277 Wuppertal",
        "coordinates": [
            51.28477255,
            7.238255955567299
        ]
    },
    {
        "id": 1292,
        "name": "Barby, Grundschule „Am Prinzeßchen“",
        "city": "Barby",
        "address": "Schloßstraße 35, 39249 Barby",
        "coordinates": [
            51.97168015,
            11.885318285681592
        ]
    },
    {
        "id": 1293,
        "name": "Gemünden am Main, Theodosius-Florentini-Schule",
        "city": "Gemünden am Main",
        "address": "Kreuzstraße 3, 97737 Gemünden a.Main",
        "coordinates": [
            50.043127,
            9.7169166
        ]
    },
    {
        "id": 1294,
        "name": "Gemünden am Main, Kindergarten Heilig Kreuz",
        "city": "Gemünden am Main",
        "address": "Kreuzstraße 3, 97737 Gemünden a.Main",
        "coordinates": [
            50.043127,
            9.7169166
        ]
    },
    {
        "id": 1295,
        "name": "Gemünden am Main, HPT Heilpädagogische Tagesstätte Rummelsberger",
        "city": "Gemünden am Main",
        "address": "Kreuzstraße 3, 97737 Gemünden am Main",
        "coordinates": [
            50.043127,
            9.7169166
        ]
    },
    {
        "id": 1296,
        "name": "Gemünden am Main, Caritas",
        "city": "Gemünden am Main",
        "address": "Kreuzstraße 3, 97737 Gemünden am Main",
        "coordinates": [
            50.043127,
            9.7169166
        ]
    },
    {
        "id": 1298,
        "name": "Oberkirch, Johann-Wölfflin-Schule GHWRS",
        "city": "Oberkirch",
        "address": "Schwarzwaldstr. 11, 77704 Oberkirch",
        "coordinates": [
            48.53297105,
            8.080110382671396
        ]
    },
    {
        "id": 1299,
        "name": "Oberkirch, HFG Hans-Furler-Gymnasium",
        "city": "Oberkirch",
        "address": "Butschbacher Straße 48b, 77704 Oberkirch",
        "coordinates": [
            48.528533100000004,
            8.069097000621815
        ]
    },
    {
        "id": 1300,
        "name": "Osterburken, GTO Ganztagsgymnasium",
        "city": "Osterburken",
        "address": "Hemsbacher Straße 24, 74706 Osterburken",
        "coordinates": [
            49.43216865,
            9.413279728656747
        ]
    },
    {
        "id": 1301,
        "name": "Osterburken, RSO Realschule",
        "city": "Osterburken",
        "address": "Hemsbacher Straße 22, 74706 Osterburken",
        "coordinates": [
            49.431453,
            9.4155081
        ]
    },
    {
        "id": 1303,
        "name": "Königs Wusterhausen, Grundschule Zeesen",
        "city": "Königs Wusterhausen",
        "address": "Fasanenstraße 1, 15711 Königs Wusterhausen",
        "coordinates": [
            52.2855494,
            13.6393583
        ]
    },
    {
        "id": 1304,
        "name": "Königs Wusterhausen, Grundschule Wilhelm Busch",
        "city": "Königs Wusterhausen",
        "address": "Rosa-Luxemburg-Straße 19, 15711 Königs Wusterhausen",
        "coordinates": [
            52.2892789,
            13.6131989
        ]
    },
    {
        "id": 1305,
        "name": "Königs Wusterhausen, Oberschule Dr. Hans Bredow",
        "city": "Königs Wusterhausen",
        "address": "Rosa-Luxemburg-Straße 19, 15711 Königs Wusterhausen",
        "coordinates": [
            52.2892789,
            13.6131989
        ]
    },
    {
        "id": 1306,
        "name": "Berlin, Schule an der Dahme",
        "city": "Berlin",
        "address": "Glienicker Str. 24-30, 12557 Berlin",
        "coordinates": [
            52.440360999999996,
            13.566631222672699
        ]
    },
    {
        "id": 1307,
        "name": "Berlin, Fritz-Kühn-Schule",
        "city": "Berlin",
        "address": "Dahmestraße 45, 12526 Berlin",
        "coordinates": [
            52.401029699999995,
            13.563983389533043
        ]
    },
    {
        "id": 1308,
        "name": "Bruchsal, Gymnasium St. Paulusheim",
        "city": "Bruchsal",
        "address": "Huttenstraße 49, 76646 Bruchsal",
        "coordinates": [
            49.1249501,
            8.6058214
        ]
    },
    {
        "id": 1310,
        "name": "Würzburg, St.-Ursula-Schule",
        "city": "Würzburg",
        "address": "Augustinerstraße 17, 97070 Würzburg",
        "coordinates": [
            49.790564,
            9.9294297
        ]
    },
    {
        "id": 1314,
        "name": "Thannhausen, Schulzentrum",
        "city": "Thannhausen",
        "address": "Röschstraße 12, 86470 Thannhausen",
        "coordinates": [
            48.2781933,
            10.470662585200024
        ]
    },
    {
        "id": 1316,
        "name": "Westerstede, Oberschule RDS",
        "city": "Westerstede",
        "address": "Heinz-Böhnke-Str. 3, 26655 Westerstede",
        "coordinates": [
            53.2627705,
            7.928095210629412
        ]
    },
    {
        "id": 1317,
        "name": "Straubing, ABG Anton-Bruckner-Gymnasium",
        "city": "Straubing",
        "address": "Hans-Adlhoch-Str. 23, 94315 Straubing",
        "coordinates": [
            48.87263645,
            12.563107313938692
        ]
    },
    {
        "id": 1320,
        "name": "Bonn, Aloisiuskolleg Gymnasium",
        "city": "Bonn",
        "address": "Elisabethstraße 18, 53177 Bonn",
        "coordinates": [
            50.675250500000004,
            7.14859023046737
        ]
    },
    {
        "id": 1322,
        "name": "Gießen, Aliceschule",
        "city": "Gießen",
        "address": "Gleiberger Weg 16, 35398 Gießen",
        "coordinates": [
            50.5934303,
            8.660158287225265
        ]
    },
    {
        "id": 1326,
        "name": "Regensburg, Schulen",
        "city": "Regensburg",
        "address": "Hans-Sachs-Straße 2, 93049 Regensburg",
        "coordinates": [
            49.022678,
            12.07545776377279
        ]
    },
    {
        "id": 1329,
        "name": "Greifswald, EMA Regionale Schule Ernst-Moritz-Arndt",
        "city": "Greifswald",
        "address": "Arndtstraße 37, 17489 Greifswald",
        "coordinates": [
            54.09177425,
            13.381539988962274
        ]
    },
    {
        "id": 1332,
        "name": "Sonthofen, Albert-Schweitzer-Schule",
        "city": "Sonthofen",
        "address": "Albert-Schweitzer-Straße 16a, 87527 Sonthofen",
        "coordinates": [
            47.5114322,
            10.2705415
        ]
    },
    {
        "id": 1333,
        "name": "Amberg, Barbara-Grundschule / Willmannschule",
        "city": "Amberg",
        "address": "Raiffeisenstraße 2, 92224 Amberg",
        "coordinates": [
            49.4360407,
            11.8783665
        ]
    },
    {
        "id": 1334,
        "name": "Nürnberg, BBS Bertolt-Brecht-Schule",
        "city": "Nürnberg",
        "address": "Bertolt-Brecht-Straße 39, 90471 Nürnberg",
        "coordinates": [
            49.4150947,
            11.125819243117224
        ]
    },
    {
        "id": 1335,
        "name": "Fellbach, SIS Swiss International School Stuttgart-Fellbach",
        "city": "Fellbach",
        "address": "Schmidener Weg 7/1, 70736 Fellbach",
        "coordinates": [
            48.8216917,
            9.2737042
        ]
    },
    {
        "id": 1337,
        "name": "Warendorf, Bistro 32 / Gymnasium Laurentianum",
        "city": "Warendorf",
        "address": "Von-Ketteler-Straße 32, 48231 Warendorf",
        "coordinates": [
            51.94699305,
            7.975690677866432
        ]
    },
    {
        "id": 1340,
        "name": "Celle, Blumläger Schule",
        "city": "Celle",
        "address": "Blumlage 42, 29221 Celle",
        "coordinates": [
            52.6213213,
            10.0900843
        ]
    },
    {
        "id": 1343,
        "name": "Celle, Grundschule Bruchhagen",
        "city": "Celle",
        "address": "Bruchhagen 2, 29227 Celle",
        "coordinates": [
            52.6001818,
            10.069061150829807
        ]
    },
    {
        "id": 1344,
        "name": "Eichstätt, Staatliche Berufsschule",
        "city": "Eichstätt",
        "address": "Burgstraße 22, 85072 Eichstätt",
        "coordinates": [
            48.8939594,
            11.173843520220888
        ]
    },
    {
        "id": 1345,
        "name": "Wermelskirchen, Städtisches Gymnasium",
        "city": "Wermelskirchen",
        "address": "Stockhauser Straße 13, 42929 Wermelskirchen",
        "coordinates": [
            51.13935715,
            7.218948425647088
        ]
    },
    {
        "id": 1346,
        "name": "Landshut, HCG Hans-Carossa-Gymnasium",
        "city": "Landshut",
        "address": "Freyung 630a, 84028 Landshut",
        "coordinates": [
            48.5360952,
            12.1594649
        ]
    },
    {
        "id": 1352,
        "name": "Bad Segeberg, Dahlmannschule",
        "city": "Bad Segeberg",
        "address": "Am Markt 4, 23795 Bad Segeberg",
        "coordinates": [
            53.935340450725924,
            10.308687238019925
        ]
    },
    {
        "id": 1354,
        "name": "Neustadt/Aisch, Dietrich-Bonhoeffer-Realschule",
        "city": "Neustadt an der Aisch",
        "address": "Comeniusstraße 4, 91413 Neustadt an der Aisch",
        "coordinates": [
            49.57330225,
            10.61289759925667
        ]
    },
    {
        "id": 1357,
        "name": "Nürnberg, Dürer-Gymnasium",
        "city": "Nürnberg",
        "address": "Sielstraße 17, 90429 Nürnberg",
        "coordinates": [
            49.4551848,
            11.05085134853944
        ]
    },
    {
        "id": 1358,
        "name": "Glückstadt, Detlefsengymnasium",
        "city": "Glückstadt",
        "address": "Dänenkamp 5, 25348 Glückstadt",
        "coordinates": [
            53.79172065,
            9.433925632880428
        ]
    },
    {
        "id": 1359,
        "name": "Karlsruhe, Drais-Gemeinschaftsschule",
        "city": "Karlsruhe",
        "address": "Tristanstraße 1, 76185 Karlsruhe",
        "coordinates": [
            49.0147157,
            8.3667782
        ]
    },
    {
        "id": 1360,
        "name": "Wyk, Eilun Feer Skuul Gymnasium & Gemeinschaftsschule Insel Föhr",
        "city": "Wyk auf Föhr",
        "address": "Rebbelstieg 59, 25938 Wyk auf Föhr",
        "coordinates": [
            54.69219105,
            8.556521958861286
        ]
    },
    {
        "id": 1361,
        "name": "Lippstadt, Evangelisches Gymnasium",
        "city": "Lippstadt",
        "address": "Beckumer Str. 61, 59555 Lippstadt",
        "coordinates": [
            51.67678265,
            8.330066413608499
        ]
    },
    {
        "id": 1362,
        "name": "Weiden, EHG Elly-Heuss-Gymnasium",
        "city": "Weiden in der Oberpfalz",
        "address": "Weigelstraße 26, 92637 Weiden in der Oberpfalz",
        "coordinates": [
            49.671520799999996,
            12.165018734452152
        ]
    },
    {
        "id": 1363,
        "name": "Erlangen, Eichendorffschule",
        "city": "Erlangen",
        "address": "Bierlachweg 11, 91058 Erlangen",
        "coordinates": [
            49.5758191,
            10.9955871
        ]
    },
    {
        "id": 1364,
        "name": "Baunatal, EKS Erich Kästner Schule",
        "city": "Baunatal",
        "address": "Friedrich-Ebert-Allee 33, 34225 Baunatal",
        "coordinates": [
            51.2550527,
            9.398858100395623
        ]
    },
    {
        "id": 1368,
        "name": "Erlangen, ENG Emmy-Noether-Gymnasium",
        "city": "Erlangen",
        "address": "Noetherstraße 49B, 91058 Erlangen",
        "coordinates": [
            49.56093645,
            11.000925908487655
        ]
    },
    {
        "id": 1369,
        "name": "Kornwestheim, ESG Ernst-Sigle-Gymnasium",
        "city": "Kornwestheim",
        "address": "Hohenstaufenallee 8, 70806 Kornwestheim",
        "coordinates": [
            48.85832023213547,
            9.18935139215952
        ]
    },
    {
        "id": 1370,
        "name": "Filderstadt, ESG Elisabeth-Selbert-Gymnasium",
        "city": "Filderstadt",
        "address": "Tübinger Str. 71, 70794 Filderstadt",
        "coordinates": [
            48.66755685,
            9.212621578656986
        ]
    },
    {
        "id": 1371,
        "name": "Naila, Evangelische Schule",
        "city": "Naila",
        "address": "Flurstraße 26, 95119 Naila",
        "coordinates": [
            50.3286025,
            11.702452
        ]
    },
    {
        "id": 1372,
        "name": "Ellrich/Sülzhayn Kindertagesstätten",
        "city": "Ellrich",
        "address": "Benneckensteiner Str. 16, 99755 Ellrich",
        "coordinates": [
            51.6090102,
            10.6985598
        ]
    },
    {
        "id": 1374,
        "name": "Wipperfürth, EVB Engelbert-von-Berg-Gymnasium",
        "city": "Wipperfürth",
        "address": "Lüdenscheider Str. 46, 51688 Wipperfürth",
        "coordinates": [
            51.1204699,
            7.406845300343771
        ]
    },
    {
        "id": 1375,
        "name": "Karlsruhe, Fichte-Gymnasium",
        "city": "Karlsruhe",
        "address": "Sophienstraße 12-16, 76133 Karlsruhe",
        "coordinates": [
            49.0068134,
            8.393247338283377
        ]
    },
    {
        "id": 1376,
        "name": "Siegen, Fischer Catering",
        "city": "Siegen",
        "address": "Dahlienweg 2, 57078 Siegen-Geisweid",
        "coordinates": [
            50.920205100000004,
            8.004613851091573
        ]
    },
    {
        "id": 1378,
        "name": "Niebüll, FPS Friedrich-Paulsen-Schule",
        "city": "Niebüll",
        "address": "Friedrich-Paulsen-Straße 5, 25899 Niebüll",
        "coordinates": [
            54.78661235,
            8.824103599999997
        ]
    },
    {
        "id": 1380,
        "name": "Greifswald, Regionale Schule „Caspar David Friedrich“",
        "city": "Greifswald",
        "address": "Usedomer Weg 1, 17493 Greifswald",
        "coordinates": [
            54.09156435,
            13.43121492608045
        ]
    },
    {
        "id": 1381,
        "name": "Schleiz, Friedrich-Fröbel-Schule",
        "city": "Schleiz",
        "address": "Greizer Straße 40a, 07907 Schleiz",
        "coordinates": [
            50.5799769,
            11.8228168
        ]
    },
    {
        "id": 1382,
        "name": "Kirchheim, Freihof-Realschule",
        "city": "Kirchheim unter Teck",
        "address": "Wollmarktstraße 38, 73230 Kirchheim unter Teck",
        "coordinates": [
            48.65134345,
            9.45251708776209
        ]
    },
    {
        "id": 1383,
        "name": "Husum, FTS Ferdinand-Tönnies-Schule",
        "city": "Husum",
        "address": "Flensburger Ch 32, 25813 Husum",
        "coordinates": [
            54.48429985,
            9.070580875373171
        ]
    },
    {
        "id": 1385,
        "name": "Leverkusen, FvSt Freiherr-vom-Stein-Gymnasium",
        "city": "Leverkusen",
        "address": "Morsbroicher Str. 77, 51375 Leverkusen",
        "coordinates": [
            51.034139350000004,
            7.038199004779818
        ]
    },
    {
        "id": 1386,
        "name": "Sarstedt, Gymnasium",
        "city": "Sarstedt",
        "address": "Wellweg 43, 31157 Sarstedt",
        "coordinates": [
            52.2404128,
            9.86098738999232
        ]
    },
    {
        "id": 1387,
        "name": "Celle, Garßen",
        "city": "Celle",
        "address": "Alvernsche Str. 5a, 29229 Celle",
        "coordinates": [
            52.6576473,
            10.1325201
        ]
    },
    {
        "id": 1388,
        "name": "Vechta, GAV Gymnasium Antonianum",
        "city": "Vechta",
        "address": "Willohstraße 19, 49377 Vechta",
        "coordinates": [
            52.7247346,
            8.28943
        ]
    },
    {
        "id": 1390,
        "name": "Dortmund, Georgschule Freie Waldorfschule",
        "city": "Dortmund",
        "address": "Mergelteichstraße 63, 44225 Dortmund",
        "coordinates": [
            51.47156965,
            7.465050391717458
        ]
    },
    {
        "id": 1391,
        "name": "Solingen-Höhscheid, Gesamtschule",
        "city": "Solingen",
        "address": "Kanalstraße 20, 42657 Solingen",
        "coordinates": [
            51.159467449999994,
            7.077922577695388
        ]
    },
    {
        "id": 1392,
        "name": "Warendorf, Gesamtschule",
        "city": "Warendorf",
        "address": "Kapellenstraße 21, 48231 Warendorf",
        "coordinates": [
            51.95890745,
            7.99679207357409
        ]
    },
    {
        "id": 1393,
        "name": "Leipzig, Komplex-Kita „DschungelBande“ auf dem Kids Campus SEB",
        "city": "Leipzig",
        "address": "Friedrich-Dittes-Straße 9, 04318 Leipzig",
        "coordinates": [
            51.3362597,
            12.412270017040843
        ]
    },
    {
        "id": 1394,
        "name": "Leipzig, KITA Die kleinen Handwerksmeister",
        "city": "Leipzig",
        "address": "Riebeckstraße 63, 04317 Leipzig",
        "coordinates": [
            51.324804900000004,
            12.402563549183062
        ]
    },
    {
        "id": 1395,
        "name": "Leipzig, Komplex-Kita „Um Die Welt“ SEB",
        "city": "Leipzig",
        "address": "Plovdiver Str. 50, 04205 Leipzig",
        "coordinates": [
            51.3224019,
            12.268353132560433
        ]
    },
    {
        "id": 1396,
        "name": "Sindelfingen, GGS Goldberg-Gymnasium",
        "city": "Sindelfingen",
        "address": "Frankenstraße 15, 71065 Sindelfingen",
        "coordinates": [
            48.6978764,
            9.008744430563805
        ]
    },
    {
        "id": 1397,
        "name": "Celle, Oberschule an der Welfenalle und Grundschule Neustadt",
        "city": "Celle",
        "address": "Welfenallee 11, 29225 Celle",
        "coordinates": [
            52.617008549999994,
            10.052940057684992
        ]
    },
    {
        "id": 1398,
        "name": "Berching, Grund- und Mittelschule",
        "city": "Berching",
        "address": "Schulstraße 17, 92332 Berching",
        "coordinates": [
            49.104417350000006,
            11.441034828048165
        ]
    },
    {
        "id": 1399,
        "name": "Münchberg, Gymnasium Schulkantine PiKANT",
        "city": "Münchberg",
        "address": "Hofer Str. 41, 95213 Münchberg",
        "coordinates": [
            50.196657849999994,
            11.793224150468928
        ]
    },
    {
        "id": 1400,
        "name": "Niebüll, Gemeinschaftsschule",
        "city": "Niebüll",
        "address": "Uhlebüller Str. 15, 25899 Niebüll",
        "coordinates": [
            54.7915987,
            8.8285901
        ]
    },
    {
        "id": 1402,
        "name": "Filderstadt, GMS Gotthard-Müller-Schule Grund- und Gemeinschaftsschule",
        "city": "Filderstadt",
        "address": "La Souterrainer Str. 9, 70794 Filderstadt",
        "coordinates": [
            48.6730685,
            9.2117413
        ]
    },
    {
        "id": 1403,
        "name": "Wassertrüdingen, Grundschule",
        "city": "Wassertrüdingen",
        "address": "Weinbergweg 16, 91717 Wassertrüdingen",
        "coordinates": [
            49.04449325,
            10.596946265945956
        ]
    },
    {
        "id": 1405,
        "name": "Regensburg, Goethe-Gymnasium",
        "city": "Regensburg",
        "address": "Goethestraße 1, 93049 Regensburg",
        "coordinates": [
            49.0177979,
            12.07486374537372
        ]
    },
    {
        "id": 1406,
        "name": "Ludwigsburg, Goethe-Gymnasium",
        "city": "Ludwigsburg",
        "address": "Seestraße 37, 71638 Ludwigsburg",
        "coordinates": [
            48.8927636,
            9.1907474
        ]
    },
    {
        "id": 1407,
        "name": "Schkeuditz, Leibniz-Grundschule",
        "city": "Schkeuditz",
        "address": "Ringstraße 10, 04435 Schkeuditz",
        "coordinates": [
            51.39444025,
            12.222706753337263
        ]
    },
    {
        "id": 1408,
        "name": "Celle-Groß Hehlen, Grundschule",
        "city": "Celle",
        "address": "Ilexweg 50, 29229 Celle",
        "coordinates": [
            52.65702665,
            10.0643458
        ]
    },
    {
        "id": 1411,
        "name": "Nordhorn, Maria-Montessori-Schule am Gildkamp",
        "city": "Nordhorn",
        "address": "Gildkamp 5-7, 48529 Nordhorn",
        "coordinates": [
            52.4389265,
            7.0701603
        ]
    },
    {
        "id": 1412,
        "name": "Landshut-Berg, Grundschule",
        "city": "Landshut",
        "address": "Weinzierlstraße 38, 84036 Landshut",
        "coordinates": [
            48.5265483,
            12.158658772406405
        ]
    },
    {
        "id": 1415,
        "name": "Gronau, Grundschule am Wildfang",
        "city": "Gronau (Leine)",
        "address": "Lindenallee 2, 31028 Gronau (Leine)",
        "coordinates": [
            52.0879036,
            9.775149
        ]
    },
    {
        "id": 1416,
        "name": "Sonthofen, GSB Grundschule an der Berghofer Straße",
        "city": "Sonthofen",
        "address": "Berghofer Str. 8a, 87527 Sonthofen",
        "coordinates": [
            47.5150261,
            10.2890413
        ]
    },
    {
        "id": 1417,
        "name": "Wiesmoor, Grundschule am Ottermeer",
        "city": "Wiesmoor",
        "address": "Am Ottermeer 4, 26639 Wiesmoor",
        "coordinates": [
            53.40954615,
            7.693275500403736
        ]
    },
    {
        "id": 1418,
        "name": "Sonthofen, Gymnasium",
        "city": "Sonthofen",
        "address": "Albert-Schweitzer-Straße 21, 87527 Sonthofen",
        "coordinates": [
            47.5131904,
            10.269541067118066
        ]
    },
    {
        "id": 1422,
        "name": "Landshut, Grundschule St. Wolfgang",
        "city": "Landshut",
        "address": "Weilerstraße 19, 84032 Landshut",
        "coordinates": [
            48.55378845,
            12.13318439588689
        ]
    },
    {
        "id": 1429,
        "name": "Nürnberg, GSR Geschwister-Scholl-Realschule",
        "city": "Nürnberg",
        "address": "Muggenhofer Str. 122, 90429 Nürnberg",
        "coordinates": [
            49.4608206,
            11.035642443156423
        ]
    },
    {
        "id": 1436,
        "name": "Dinkelsbühl, Gymnasium",
        "city": "Dinkelsbühl",
        "address": "Ulmer Weg 3, 91550 Dinkelsbühl",
        "coordinates": [
            49.06464415,
            10.316710778915663
        ]
    },
    {
        "id": 1439,
        "name": "Oberasbach, DBG Dietrich-Bonhoeffer-Gymnasium",
        "city": "Oberasbach",
        "address": "Albrecht-Dürer-Straße 9-11, 90522 Oberasbach",
        "coordinates": [
            49.43307955,
            10.963931466505013
        ]
    },
    {
        "id": 1440,
        "name": "Roth, Gymnasium",
        "city": "Roth",
        "address": "Brentwoodstraße 4, 91154 Roth",
        "coordinates": [
            49.2359994,
            11.093371010638391
        ]
    },
    {
        "id": 1443,
        "name": "Goch, Gymnasium",
        "city": "Goch",
        "address": "Hubert-Houben-Straße 9, 47574 Goch",
        "coordinates": [
            51.6674662,
            6.16668943067147
        ]
    },
    {
        "id": 1445,
        "name": "Füssen, Gymnasium",
        "city": "Füssen",
        "address": "Dr.-Enzinger-Straße 5, 87629 Füssen",
        "coordinates": [
            47.57486545,
            10.701463641518435
        ]
    },
    {
        "id": 1447,
        "name": "Stein, Gymnasium",
        "city": "Stein",
        "address": "Faber-Castell-Allee 10, 90547 Stein",
        "coordinates": [
            49.40451435,
            11.007166613842173
        ]
    },
    {
        "id": 1448,
        "name": "Neustadt/Waldnaab, Gymnasium NEW",
        "city": "Neustadt an der Waldnaab",
        "address": "Bildstraße 20, 92660 Neustadt an der Waldnaab",
        "coordinates": [
            49.725578299999995,
            12.178068291482742
        ]
    },
    {
        "id": 1449,
        "name": "Landshut, HLG Hans-Leinberger-Gymnasium",
        "city": "Landshut",
        "address": "Jürgen-Schumann-Straße 20, 84034 Landshut",
        "coordinates": [
            48.5421714,
            12.1248131
        ]
    },
    {
        "id": 1450,
        "name": "Celle, Grundschule Heese-Süd",
        "city": "Celle",
        "address": "Kniprodestraße 8, 29225 Celle",
        "coordinates": [
            52.605315649999994,
            10.04288391049512
        ]
    },
    {
        "id": 1451,
        "name": "Celle, Grundschule Hehlentor",
        "city": "Celle",
        "address": "Harburger Str. 33, 29223 Celle",
        "coordinates": [
            52.631251,
            10.08075
        ]
    },
    {
        "id": 1452,
        "name": "Fürth, Hardenberg-Gymnasium",
        "city": "Fürth",
        "address": "Kaiserstraße 92, 90763 Fürth",
        "coordinates": [
            49.4635411,
            10.9955056232487
        ]
    },
    {
        "id": 1453,
        "name": "Fürth, HLG Helene-Lange Gymnasium / Leopold-Uhlstein-Realschule",
        "city": "Fürth",
        "address": "Tannenstraße 19, 90762 Fürth",
        "coordinates": [
            49.4713302,
            11.001763722686189
        ]
    },
    {
        "id": 1454,
        "name": "Celle, Hölty-Gymnasium",
        "city": "Celle",
        "address": "Ludwig-Hölty-Straße 2, 29225 Celle",
        "coordinates": [
            52.6159311,
            10.053509551216788
        ]
    },
    {
        "id": 1455,
        "name": "Nordhorn, Heilpädagogische Kindertagesstätte Regenbogen",
        "city": "Nordhorn",
        "address": "Mückenweg 100, 48527 Nordhorn",
        "coordinates": [
            52.427685499999995,
            7.040073250000001
        ]
    },
    {
        "id": 1456,
        "name": "Esens, Schulzentrum",
        "city": "Esens",
        "address": "Walpurgisstraße, 26427 Esens",
        "coordinates": [
            53.6502088,
            7.6125397
        ]
    },
    {
        "id": 1460,
        "name": "Nürnberg, Hans-Sachs-Gymnasium",
        "city": "Nürnberg",
        "address": "Löbleinstraße 10, 90409 Nürnberg",
        "coordinates": [
            49.46300105,
            11.086205922099523
        ]
    },
    {
        "id": 1462,
        "name": "Karlsruhe, Humboldt-Gymnasium",
        "city": "Karlsruhe",
        "address": "Wilhelm-Hausenstein-Allee 22, 76187 Karlsruhe",
        "coordinates": [
            49.033622699999995,
            8.371673020052897
        ]
    },
    {
        "id": 1464,
        "name": "Greifswald, AvH Alexander-von-Humboldt-Gymnasium",
        "city": "Greifswald",
        "address": "Makarenkostraße 54, 17491 Greifswald",
        "coordinates": [
            54.082419200000004,
            13.419670612164126
        ]
    },
    {
        "id": 1465,
        "name": "Gifhorn, IGS Integrierte Gesamtschule",
        "city": "Gifhorn",
        "address": "Lehmweg 58, 38518 Gifhorn",
        "coordinates": [
            52.476967099999996,
            10.564798996656663
        ]
    },
    {
        "id": 1466,
        "name": "Osnabrück, IGS Integrierte Gesamtschule",
        "city": "Osnabrück",
        "address": "Eversheide 18, 49090 Osnabrück",
        "coordinates": [
            52.2978055,
            8.0009523
        ]
    },
    {
        "id": 1467,
        "name": "Landsberg, IKG Ignaz Kögler Gymnasium",
        "city": "Landsberg",
        "address": "Lechstraße 6, 86899 Landsberg am Lech",
        "coordinates": [
            48.0522087,
            10.873664510764026
        ]
    },
    {
        "id": 1469,
        "name": "Sulzbach-Rosenberg, Jahnschule",
        "city": "Sulzbach-Rosenberg",
        "address": "Jahnstraße 34, 92237 Sulzbach-Rosenberg",
        "coordinates": [
            49.494961599999996,
            11.77150295450517
        ]
    },
    {
        "id": 1472,
        "name": "Burscheid, JLG Johannes-Löh-Gesamtschule",
        "city": "Burscheid",
        "address": "Auf dem Schulberg 2-4, 51399 Burscheid",
        "coordinates": [
            51.081478,
            7.1106135
        ]
    },
    {
        "id": 1474,
        "name": "Freising, JoHo Josef-Hofmiller-Gymnasium",
        "city": "Freising",
        "address": "Vimystraße 14, 85354 Freising",
        "coordinates": [
            48.4057214,
            11.7427027
        ]
    },
    {
        "id": 1476,
        "name": "Freystadt, Martini Schule",
        "city": "Freystadt",
        "address": "Allersberger Straße 11, 92342 Freystadt",
        "coordinates": [
            49.20136665,
            11.325282881383705
        ]
    },
    {
        "id": 1478,
        "name": "Windsbach, JSBG Johann Sebastian Bach Gymnasium",
        "city": "Windsbach",
        "address": "Moosbacher Str. 9, 91575 Windsbach",
        "coordinates": [
            49.2505852,
            10.8353969
        ]
    },
    {
        "id": 1479,
        "name": "Amberg, Dreifaltigkeitsschule / GMG",
        "city": "Amberg",
        "address": "Krumbacher Straße 2a, 92224 Amberg",
        "coordinates": [
            49.4452455,
            11.8825293
        ]
    },
    {
        "id": 1480,
        "name": "Wustrow (Wendland), Christian-Henning-Schule  / Kartoffelhof Kunitz",
        "city": "Wustrow (Wendland)",
        "address": "Mühlensteg 3, 29462 Wustrow (Wendland)",
        "coordinates": [
            52.925684399999994,
            11.117102161278584
        ]
    },
    {
        "id": 1481,
        "name": "Celle, Katholische Grundschule",
        "city": "Celle",
        "address": "Julius-von-der-Wall-Straße 7, 29221 Celle",
        "coordinates": [
            52.619314,
            10.077742166283425
        ]
    },
    {
        "id": 1483,
        "name": "Wittmund, KGS Alexander von Humboldt Schule",
        "city": "Wittmund",
        "address": "Brandenburger Str. 4, 26409 Wittmund",
        "coordinates": [
            53.57820865,
            7.762541990312254
        ]
    },
    {
        "id": 1484,
        "name": "Nordhausen, Kindergarten Jugendsozialwerk",
        "city": "Nordhausen",
        "address": "Rudolf-Breitscheid-Str. 9, 99734 Nordhausen",
        "coordinates": [
            51.50201285,
            10.798296717407332
        ]
    },
    {
        "id": 1485,
        "name": "Nordhorn, Kindertagesstätte Villa Kunterbunt",
        "city": "Nordhorn",
        "address": "Hohenkörbener Weg 101 / Drosselstraße 6, 48527 Nordhorn",
        "coordinates": [
            52.449577403668705,
            7.067231549618261
        ]
    },
    {
        "id": 1486,
        "name": "Sonthofen, Kinderhort Ried",
        "city": "Sonthofen",
        "address": "Albert-Schweitzer-Straße 14a, 87527 Sonthofen",
        "coordinates": [
            47.5114322,
            10.2705415
        ]
    },
    {
        "id": 1487,
        "name": "Nordhorn, Kindertagesstätte Arche Noah",
        "city": "Nordhorn",
        "address": "NINO-Allee 24, 48529 Nordhorn",
        "coordinates": [
            52.4263324,
            7.0703075
        ]
    },
    {
        "id": 1490,
        "name": "Celle, Grundschule Klein Hehlen",
        "city": "Celle",
        "address": "Wagnerweg 40, 29223 Celle",
        "coordinates": [
            52.6295812,
            10.0576423
        ]
    },
    {
        "id": 1495,
        "name": "Nürnberg, LABO Städtisches Labenwolf-Gymnasium",
        "city": "Nürnberg",
        "address": "Labenwolfstraße 10, 90409 Nürnberg",
        "coordinates": [
            49.46020785,
            11.084740857331212
        ]
    },
    {
        "id": 1496,
        "name": "Leverkusen, Landrat-Lucas-Gymnasium",
        "city": "Leverkusen",
        "address": "Peter-Neuenheuser-Straße 7-11, 51379 Leverkusen",
        "coordinates": [
            51.0633363,
            7.0014239
        ]
    },
    {
        "id": 1497,
        "name": "Laupheim, Schulen",
        "city": "Laupheim",
        "address": "Rabenstraße 45, 88471 Laupheim",
        "coordinates": [
            48.226412100000005,
            9.880756414709664
        ]
    },
    {
        "id": 1498,
        "name": "Laupheim, Grundschule Bronner Berg / Haus des Kindes",
        "city": "Laupheim",
        "address": "Bronner Str. 35, 88471 Laupheim",
        "coordinates": [
            48.23439945,
            9.887311908411228
        ]
    },
    {
        "id": 1499,
        "name": "Passau, Gymnasium Leopoldinum",
        "city": "Passau",
        "address": "Michaeligasse 15, 94032 Passau",
        "coordinates": [
            48.57360505,
            13.470453776978719
        ]
    },
    {
        "id": 1500,
        "name": "Karlsruhe, Lessing-Gymnasium",
        "city": "Karlsruhe",
        "address": "Sophienstraße 147, 76135 Karlsruhe",
        "coordinates": [
            49.00781670000001,
            8.375177019525552
        ]
    },
    {
        "id": 1501,
        "name": "Ilmenau, Gymnasium „Am Lindenberg“",
        "city": "Ilmenau",
        "address": "Gerhart-Hauptmann Straße 5a, 98693 Ilmenau",
        "coordinates": [
            50.67833205,
            10.914066503206397
        ]
    },
    {
        "id": 1506,
        "name": "Nürnberg, MBG Martin-Behaim-Gymnasium",
        "city": "Nürnberg",
        "address": "Schultheißallee 1, 90478 Nürnberg",
        "coordinates": [
            49.439272450000004,
            11.104956268214536
        ]
    },
    {
        "id": 1508,
        "name": "Gifhorn, Michael-Ende-Schule",
        "city": "Gifhorn",
        "address": "Pommernring 11, 38518 Gifhorn",
        "coordinates": [
            52.4761406,
            10.564708197030203
        ]
    },
    {
        "id": 1511,
        "name": "Buchloe, Gymnasium",
        "city": "Buchloe",
        "address": "Kerschensteinerstraße 8, 86807 Buchloe",
        "coordinates": [
            48.0300977,
            10.7284192
        ]
    },
    {
        "id": 1512,
        "name": "Stuttgart, KCG Königin-Charlotte-Gymnasium",
        "city": "Stuttgart",
        "address": "Sigmaringer Straße 85, 70567 Stuttgart",
        "coordinates": [
            48.730993,
            9.152578416050714
        ]
    },
    {
        "id": 1513,
        "name": "Mainburg, HMM Hallertauer Mittelschule",
        "city": "Mainburg",
        "address": "Ebrantshauser Str. 68, 84048 Mainburg",
        "coordinates": [
            48.649845299999996,
            11.771446958462008
        ]
    },
    {
        "id": 1514,
        "name": "Kreuztal, RSK / CSG Ernst-Moritz-Arndt-Realschule Clara-Schumann-Gesamtschule",
        "city": "Kreuztal",
        "address": "Herrengarten 13, 57223 Kreuztal",
        "coordinates": [
            50.96361109861337,
            7.994943023916094
        ]
    },
    {
        "id": 1518,
        "name": "Buchloe, Realschule",
        "city": "Buchloe",
        "address": "Kerschensteinerstraße 2, 86807 Buchloe",
        "coordinates": [
            48.0294631,
            10.727635284639462
        ]
    },
    {
        "id": 1519,
        "name": "Waldbröl, Gesamtschule",
        "city": "Waldbröl",
        "address": "Höhenweg 49, 51545 Waldbröl",
        "coordinates": [
            50.8769824,
            7.6077823
        ]
    },
    {
        "id": 1520,
        "name": "Hildesheim, Gymnasium Himmelsthür",
        "city": "Hildesheim",
        "address": "An der Fohlenkoppel 3, 31137 Hildesheim",
        "coordinates": [
            52.1636862,
            9.920229036212167
        ]
    },
    {
        "id": 1522,
        "name": "Georgsmarienhütte, Gymnasium Oesede",
        "city": "Georgsmarienhütte",
        "address": "Gymnasium Oesede, Carl-Stahmer-Weg 19, 49124 Georgsmarienhütte",
        "coordinates": [
            52.2018042,
            8.0519007
        ]
    },
    {
        "id": 1523,
        "name": "Kulmbach, MGF Markgraf-Georg-Friedrich -Gymnasium",
        "city": "Kulmbach",
        "address": "Schießgraben 1, 95326 Kulmbach",
        "coordinates": [
            50.10514379999999,
            11.46104837574004
        ]
    },
    {
        "id": 1524,
        "name": "Lichtenfels, MGL Meranier-Gymnasium",
        "city": "Lichtenfels",
        "address": "Kronacher Straße 34, 96215 Lichtenfels",
        "coordinates": [
            50.1482411,
            11.0722978
        ]
    },
    {
        "id": 1525,
        "name": "Sulzbach-Rosenberg, Krötensee-Mittelschule",
        "city": "Sulzbach-Rosenberg",
        "address": "Dieselstraße 29, 92237 Sulzbach-Rosenberg",
        "coordinates": [
            49.495453,
            11.734381755204328
        ]
    },
    {
        "id": 1526,
        "name": "Vilsbiburg, MMG Maximilian-von-Montgelas Gymnasium",
        "city": "Vilsbiburg",
        "address": "Gobener Straße 4, 84137 Vilsbiburg",
        "coordinates": [
            48.4582232,
            12.3588692
        ]
    },
    {
        "id": 1527,
        "name": "Riedstadt, MNS Martin-Niemöller-Schule",
        "city": "Riedstadt",
        "address": "Freiherr-vom-Stein-Str. 5, 64560 Riedstadt",
        "coordinates": [
            49.83074070000001,
            8.497833917977264
        ]
    },
    {
        "id": 1529,
        "name": "Ludwigsburg, MGL Mörike-Gymnasium",
        "city": "Ludwigsburg",
        "address": "Karlstraße 19, 71638 Ludwigsburg",
        "coordinates": [
            48.8920976,
            9.188888
        ]
    },
    {
        "id": 1531,
        "name": "Siegen, GAM Gymnasium „Auf der Morgenröthe“",
        "city": "Siegen",
        "address": "Höllenwaldstraße 100, 57080 Siegen",
        "coordinates": [
            50.84816884999999,
            7.982364009353802
        ]
    },
    {
        "id": 1532,
        "name": "Eichstätt, Mittelschule Schottenau",
        "city": "Eichstätt",
        "address": "Schottenau 18, 85072 Eichstätt",
        "coordinates": [
            48.8865268,
            11.194645323650793
        ]
    },
    {
        "id": 1533,
        "name": "Helmbrechts, MSH Mittelschule",
        "city": "Helmbrechts",
        "address": "Moltkestraße 9A, 95233 Helmbrechts",
        "coordinates": [
            50.23458655,
            11.71515625878038
        ]
    },
    {
        "id": 1535,
        "name": "Sonthofen, Mittelschule",
        "city": "Sonthofen",
        "address": "Hindelanger Str. 21, 87527 Sonthofen",
        "coordinates": [
            47.51283875,
            10.288587211022513
        ]
    },
    {
        "id": 1538,
        "name": "Mühlhausen/Höngeda, Freie Gemeinschaftsschule „Janusz Korczak“",
        "city": "Mühlhausen/Thüringen",
        "address": "Thomas-Müntzer-Weg 6, 99998 Mühlhausen/Thüringen",
        "coordinates": [
            51.18717825,
            10.495978461135719
        ]
    },
    {
        "id": 1539,
        "name": "Nürnberg, Maria-Ward-Schulen",
        "city": "Nürnberg",
        "address": "Keßlerpl. 2, 90489 Nürnberg",
        "coordinates": [
            49.4525991,
            11.090051358889864
        ]
    },
    {
        "id": 1540,
        "name": "Mühlhausen, Freie Gemeinschaftsschule „Janusz Korczak“ Schillerweg",
        "city": "Mühlhausen/Thüringen",
        "address": "Schillerweg 59, 99974 Mühlhausen/Thüringen",
        "coordinates": [
            51.2037388,
            10.4579823
        ]
    },
    {
        "id": 1541,
        "name": "Mühlhausen/Görmar, WfbM Werkstatt für Menschen mit Behinderung",
        "city": "Mühlhausen/Thüringen",
        "address": "Treffurter Weg 14A, 99974 Mühlhausen/Thüringen",
        "coordinates": [
            51.19871195,
            10.467263155715163
        ]
    },
    {
        "id": 1542,
        "name": "Bayreuth, MWG Markgräfin-Wilhelmine-Gymnasium",
        "city": "Bayreuth",
        "address": "Königsallee 17, 95448 Bayreuth",
        "coordinates": [
            49.940497300000004,
            11.592095333195907
        ]
    },
    {
        "id": 1543,
        "name": "Celle, Grundschule Nadelberg",
        "city": "Celle",
        "address": "Schulstraße 6, 29227 Celle",
        "coordinates": [
            52.606376600000004,
            10.076403496466263
        ]
    },
    {
        "id": 1544,
        "name": "Neuenstadt, Helmbundschule / Eduard-Mörike-Gymnasium",
        "city": "Neuenstadt am Kocher",
        "address": "Gymnasiumstraße 16, 74196 Neuenstadt am Kocher",
        "coordinates": [
            49.2341893,
            9.336546
        ]
    },
    {
        "id": 1545,
        "name": "Neukirchen, EMS Emil-Nolde-Schule",
        "city": "Neukirchen",
        "address": "Otzhusumweg 6, 25927 Neukirchen",
        "coordinates": [
            54.86815455,
            8.735456248189307
        ]
    },
    {
        "id": 1546,
        "name": "Nürnberg, NGN Neues Gymnasium",
        "city": "Nürnberg",
        "address": "Weddigenstraße 21, 90478 Nürnberg",
        "coordinates": [
            49.43866565,
            11.10740727175136
        ]
    },
    {
        "id": 1549,
        "name": "Dinklage, OBS Oberschule",
        "city": "Dinklage",
        "address": "Kösters Gang 11, 49413 Dinklage",
        "coordinates": [
            52.659355899999994,
            8.123839490921352
        ]
    },
    {
        "id": 1551,
        "name": "Oberviechtach, OGO Ortenburg Gymnasium",
        "city": "Oberviechtach",
        "address": "Jahnstraße 18, 92526 Oberviechtach",
        "coordinates": [
            49.45747945,
            12.409715705110917
        ]
    },
    {
        "id": 1552,
        "name": "Naila, OGTS Grundschule",
        "city": "Naila",
        "address": "Albin-Klöber-Str. 11, 95119 Naila",
        "coordinates": [
            50.330868499999994,
            11.703027559161423
        ]
    },
    {
        "id": 1553,
        "name": "Holzgerlingen, ORS Otto-Rommel-Realschule",
        "city": "Holzgerlingen",
        "address": "Schillerstraße 15, 71088 Holzgerlingen",
        "coordinates": [
            48.64296065,
            9.015638455271763
        ]
    },
    {
        "id": 1554,
        "name": "Ludwigsburg, OHG Otto-Hahn-Gymnasium",
        "city": "Ludwigsburg",
        "address": "Kaiserstraße 14, 71636 Ludwigsburg",
        "coordinates": [
            48.8985315,
            9.1757679
        ]
    },
    {
        "id": 1555,
        "name": "Nürnberg, Paul-Moor-Schule",
        "city": "Nürnberg",
        "address": "Schafhofstraße 27, 90411 Nürnberg",
        "coordinates": [
            49.479499149999995,
            11.120651764355744
        ]
    },
    {
        "id": 1556,
        "name": "Celle, Pestalozzischule",
        "city": "Celle",
        "address": "Carstensstraße 11, 29225 Celle",
        "coordinates": [
            52.6149506,
            10.0578412
        ]
    },
    {
        "id": 1558,
        "name": "Sulzbach-Rosenberg, Pestalozzi Grundschule",
        "city": "Sulzbach-Rosenberg",
        "address": "Konrad-Mayer-Straße 2, 92237 Sulzbach-Rosenberg",
        "coordinates": [
            49.5002448,
            11.7477754
        ]
    },
    {
        "id": 1559,
        "name": "Nürnberg, PGN Pirckheimer-Gymnasium",
        "city": "Nürnberg",
        "address": "Gibitzenhofstraße 151, 90443 Nürnberg",
        "coordinates": [
            49.43110605,
            11.067766867707096
        ]
    },
    {
        "id": 1560,
        "name": "Nürtingen, PHG Peter-Härtling-Privatgymnasium",
        "city": "Nürtingen",
        "address": "Sigmaringer Straße 15/1, 72622 Nürtingen",
        "coordinates": [
            48.629217749999995,
            9.341753940675968
        ]
    },
    {
        "id": 1561,
        "name": "Nürnberg, PHR Peter-Henlein-Realschule",
        "city": "Nürnberg",
        "address": "Pommernstraße 10, 90451 Nürnberg",
        "coordinates": [
            49.4118083,
            11.044238
        ]
    },
    {
        "id": 1562,
        "name": "Leinfelden-Echterdingen, PMHG Philipp-Matthäus-Hahn-Gymnasium",
        "city": "Leinfelden-Echterdingen",
        "address": "Schimmelwiesenstraße 24, 70771 Leinfelden-Echterdingen",
        "coordinates": [
            48.68920425,
            9.15515731276334
        ]
    },
    {
        "id": 1566,
        "name": "Vallendar, VPU Vinzenz Pallotti University (PTHV)",
        "city": "Vallendar",
        "address": "Pallottistraße 3, 56179 Vallendar",
        "coordinates": [
            50.4025314,
            7.6273137
        ]
    },
    {
        "id": 1567,
        "name": "Erlangen, Realschule am Europakanal",
        "city": "Erlangen",
        "address": "Schallershofer Straße 18, 91056 Erlangen",
        "coordinates": [
            49.59900985,
            10.977798263059377
        ]
    },
    {
        "id": 1568,
        "name": "Ansbach, Johann Steingruber Realschule",
        "city": "Ansbach",
        "address": "Schreibmüllerstraße 12, 91522 Ansbach",
        "coordinates": [
            49.31432795,
            10.55836560525848
        ]
    },
    {
        "id": 1569,
        "name": "Filderstadt/Bernhausen, Realschule Fleinsbachschule",
        "city": "Filderstadt",
        "address": "Poltawastraße 3, 70794 Filderstadt",
        "coordinates": [
            48.6718786,
            9.212703718701551
        ]
    },
    {
        "id": 1570,
        "name": "Kulmbach, CvL Realschule Carl-von-Linde-Schule",
        "city": "Kulmbach",
        "address": "Alte Forstlahmer Straße 16, 95326 Kulmbach",
        "coordinates": [
            50.09027295,
            11.45817605
        ]
    },
    {
        "id": 1571,
        "name": "Rehau, Schulzentrum",
        "city": "Rehau",
        "address": "Pilgramsreuther Str. 34, 95111 Rehau",
        "coordinates": [
            50.24293055,
            12.031123284977507
        ]
    },
    {
        "id": 1572,
        "name": "Rothenburg, RSG Reichsstadt Gymnasium",
        "city": "Rothenburg/O.L.",
        "address": "Dinkelsbühler Straße 5, 91541 Rothenburg o.d.T.",
        "coordinates": [
            49.36557644394375,
            10.191395997198478
        ]
    },
    {
        "id": 1575,
        "name": "Osnabrück/Bramsche, IGS Greselius-Gymnasium",
        "city": "Osnabrück",
        "address": "Kreishaus Am Schölerberg 1, 49082 Osnabrück",
        "coordinates": [
            52.2484956,
            8.0721938974831
        ]
    },
    {
        "id": 1577,
        "name": "Siegen, RSAdM Realschule „Auf der Morgenröthe“",
        "city": "Siegen",
        "address": "Höllenwaldstraße 100, 57080 Siegen",
        "coordinates": [
            50.84816884999999,
            7.982364009353802
        ]
    },
    {
        "id": 1578,
        "name": "Filderstadt, Realschule Bonlanden Bildungszentrum Seefälle",
        "city": "Filderstadt",
        "address": "Mahlestraße 20, 70794 Filderstadt",
        "coordinates": [
            48.6519363,
            9.210583102346575
        ]
    },
    {
        "id": 1579,
        "name": "Heinsberg, Realschule „Im Klevchen“",
        "city": "Heinsberg",
        "address": "Schafhausener Straße 41, 52525 Heinsberg",
        "coordinates": [
            51.0577699,
            6.1036636
        ]
    },
    {
        "id": 1582,
        "name": "Dortmund/Brünninghausen, Rudolf-Steiner-Schule",
        "city": "Dortmund",
        "address": "Mergelteichstraße 51, 44225 Dortmund",
        "coordinates": [
            51.47192685,
            7.462748884252845
        ]
    },
    {
        "id": 1583,
        "name": "Zirndorf, RSZ Realschule",
        "city": "Zirndorf",
        "address": "Jakob-Wassermann-Straße 1, 90513 Zirndorf",
        "coordinates": [
            49.4412976,
            10.94360059911052
        ]
    },
    {
        "id": 1584,
        "name": "Nürnberg, NBG SABEL Schulen",
        "city": "Nürnberg",
        "address": "Isarstraße 4, 90451 Nürnberg",
        "coordinates": [
            49.40899855,
            11.063144812980065
        ]
    },
    {
        "id": 1587,
        "name": "Ludwigsburg, FSG Friedrich-Schiller-Gymnasium",
        "city": "Ludwigsburg",
        "address": "Alleenstraße 16, 71638 Ludwigsburg",
        "coordinates": [
            48.8929446,
            9.1889607
        ]
    },
    {
        "id": 1589,
        "name": "Kornwestheim, Schillerschule",
        "city": "Kornwestheim",
        "address": "Schillerstraße 13, 70806 Kornwestheim",
        "coordinates": [
            48.8671484,
            9.188332
        ]
    },
    {
        "id": 1591,
        "name": "Karlsruhe/Durlach, SSD Schloss Grundschule",
        "city": "Karlsruhe",
        "address": "Prinzessenstraße 1, 76227 Karlsruhe",
        "coordinates": [
            48.9978718,
            8.473692774428487
        ]
    },
    {
        "id": 1592,
        "name": "Nabburg, Schulzentrum",
        "city": "Nabburg",
        "address": "Rotbühlring 4, 92507 Nabburg",
        "coordinates": [
            49.4542725,
            12.1748432
        ]
    },
    {
        "id": 1594,
        "name": "Rudolstadt/Keilhau Freie Fröbelschule / K12 Saalfeld-Rudolstadt",
        "city": "Rudolstadt",
        "address": "Robert-Birkner-Straße 17-27, 07407 Rudolstadt",
        "coordinates": [
            50.7136792,
            11.24876
        ]
    },
    {
        "id": 1595,
        "name": "Delmenhorst, Schule an der Karlstraße",
        "city": "Delmenhorst",
        "address": "Karlstraße 8, 27749 Delmenhorst",
        "coordinates": [
            53.04638735,
            8.633976425678519
        ]
    },
    {
        "id": 1597,
        "name": "Delmenhorst, Schule an der Karlstraße/Steller Straße",
        "city": "Delmenhorst",
        "address": "Steller Straße 5, 27755 Delmenhorst",
        "coordinates": [
            53.0198123,
            8.6497334
        ]
    },
    {
        "id": 1600,
        "name": "Karlsruhe, Schulzentrum Gymnasium Neureut",
        "city": "Karlsruhe",
        "address": "Unterfeldstraße 6, 76149 Karlsruhe",
        "coordinates": [
            49.04514525,
            8.378219359001722
        ]
    },
    {
        "id": 1601,
        "name": "Naila, Schulzentrum",
        "city": "Naila",
        "address": "Finkenweg 17, 95119 Naila",
        "coordinates": [
            50.33661585,
            11.702214601985396
        ]
    },
    {
        "id": 1605,
        "name": "Leverkusen, Sekundarschule",
        "city": "Leverkusen",
        "address": "Neukronenberger Str. 81, 51381 Leverkusen",
        "coordinates": [
            51.06718695,
            7.029095729526928
        ]
    },
    {
        "id": 1608,
        "name": "Wermelskirchen, Sekundarschule",
        "city": "Wermelskirchen",
        "address": "Wirtsmühler Str. 12, 42929 Wermelskirchen",
        "coordinates": [
            51.14257405,
            7.2265405764232895
        ]
    },
    {
        "id": 1610,
        "name": "Eichstätt, Schule an der Altmühl",
        "city": "Eichstätt",
        "address": "Schottenau 10, 85072 Eichstätt",
        "coordinates": [
            48.887336000000005,
            11.195926440356963
        ]
    },
    {
        "id": 1611,
        "name": "Sulzbach-Rosenberg, Sonderpädagogisches Förderzentrum",
        "city": "Sulzbach-Rosenberg",
        "address": "Dieselstraße 35, 92237 Sulzbach-Rosenberg",
        "coordinates": [
            49.4944008,
            11.734587645527435
        ]
    },
    {
        "id": 1612,
        "name": "Kornwestheim, Silcherschule",
        "city": "Kornwestheim",
        "address": "Jakob-Sigle-Platz 9, 70806 Kornwestheim",
        "coordinates": [
            48.85965425,
            9.183367606874999
        ]
    },
    {
        "id": 1613,
        "name": "Leipzig, SportOberschule",
        "city": "Leipzig",
        "address": "Max-Planck-Straße 53-55, 04105 Leipzig",
        "coordinates": [
            51.34992535000001,
            12.351384261232791
        ]
    },
    {
        "id": 1614,
        "name": "Leipzig, Landesgymnasium für Sport",
        "city": "Leipzig",
        "address": "Marschnerstraße 30, 04109 Leipzig",
        "coordinates": [
            51.339061799999996,
            12.355734034009732
        ]
    },
    {
        "id": 1615,
        "name": "Chemnitz, Sportschulen",
        "city": "Chemnitz",
        "address": "Reichenhainer Str. 210, 09125 Chemnitz",
        "coordinates": [
            50.802888300000006,
            12.936448097062403
        ]
    },
    {
        "id": 1619,
        "name": "Tamm, Schulzentrum",
        "city": "Tamm",
        "address": "Rilkestraße 16, 71732 Tamm",
        "coordinates": [
            48.92482565,
            9.119156757093533
        ]
    },
    {
        "id": 1620,
        "name": "Weingarten, TBS Turmbergschule",
        "city": "Weingarten",
        "address": "Schulstraße 2, 76356 Weingarten",
        "coordinates": [
            49.0511114,
            8.5296755
        ]
    },
    {
        "id": 1621,
        "name": "Wiesbaden, TFS Theodor Fliedner Schule",
        "city": "Wiesbaden",
        "address": "Biegerstraße 15, 65191 Wiesbaden",
        "coordinates": [
            50.07911625,
            8.278615149735291
        ]
    },
    {
        "id": 1622,
        "name": "Kornwestheim, THRS Theodor-Heuss-Realschule",
        "city": "Kornwestheim",
        "address": "Theodor-Heuss-Straße 34, 70806 Kornwestheim",
        "coordinates": [
            48.8575185,
            9.197241582364477
        ]
    },
    {
        "id": 1623,
        "name": "Nördlingen, THG Theodor-Heuss-Gymnasium",
        "city": "Nördlingen",
        "address": "Schäufelinstr. 8, 86720 Nördlingen",
        "coordinates": [
            48.8440266,
            10.497654142140366
        ]
    },
    {
        "id": 1624,
        "name": "Wiehl, TOB Sekundarschule",
        "city": "Wiehl",
        "address": "Weierhofweg 22, 51674 Wiehl",
        "coordinates": [
            50.9635785,
            7.5096971
        ]
    },
    {
        "id": 1625,
        "name": "Husum, TSS Theodor-Storm-Schule",
        "city": "Husum",
        "address": "Ludwig-Nissen-Straße 62, 25813 Husum",
        "coordinates": [
            54.47525485,
            9.062994110452287
        ]
    },
    {
        "id": 1626,
        "name": "Straubing, Schulen Ursulinen Kloster",
        "city": "Straubing",
        "address": "Burggasse 40, 94315 Straubing",
        "coordinates": [
            48.88437690000001,
            12.573330104179616
        ]
    },
    {
        "id": 1627,
        "name": "Velburg, GMS Grundschule und Mittelschule",
        "city": "Velburg",
        "address": "Alte Seubersdorfer Straße 15, 92355 Velburg",
        "coordinates": [
            49.2257039,
            11.6697257
        ]
    },
    {
        "id": 1629,
        "name": "Regensburg/Königswiesen, VMG Von-Müller-Gymnasium",
        "city": "Regensburg",
        "address": "Erzbischof-Buchberger-Allee 21, 93051 Regensburg",
        "coordinates": [
            49.0042131,
            12.074780692675002
        ]
    },
    {
        "id": 1631,
        "name": "Celle/Vorwerk, Grunschule",
        "city": "Celle",
        "address": "Bosteler Weg 17, 29229 Celle",
        "coordinates": [
            52.650637,
            10.103271367930832
        ]
    },
    {
        "id": 1632,
        "name": "Überlingen, Freie Waldorfschule am Bodensee",
        "city": "Überlingen",
        "address": "Rengoldshauser Str. 20, 88662 Überlingen",
        "coordinates": [
            47.7728594,
            9.199432282766992
        ]
    },
    {
        "id": 1634,
        "name": "Celle/Waldweg, Grundschule",
        "city": "Celle",
        "address": "Waldweg 59, 29221 Celle",
        "coordinates": [
            52.6076916,
            10.0678861
        ]
    },
    {
        "id": 1635,
        "name": "Wolfhagen, WLS Walter-Lübcke-Schule",
        "city": "Wolfhagen",
        "address": "Kurfürstenstraße 20, 34466 Wolfhagen",
        "coordinates": [
            51.3233078,
            9.1756976
        ]
    },
    {
        "id": 1636,
        "name": "Langenzenn, Wolfgang-Borchert-Gymnasium",
        "city": "Langenzenn",
        "address": "Sportplatzstraße 2, 90579 Langenzenn",
        "coordinates": [
            49.49228735,
            10.780065517434993
        ]
    },
    {
        "id": 1637,
        "name": "Butzbach, Weidigschule / Weidigs Esspunkt",
        "city": "Butzbach",
        "address": "Im Vogelsang 8, 35510 Butzbach",
        "coordinates": [
            50.432426,
            8.6546409
        ]
    },
    {
        "id": 1638,
        "name": "Nürnberg, WGN Willstätter Gymnasium",
        "city": "Nürnberg",
        "address": "Innerer Laufer Pl. 11, 90403 Nürnberg",
        "coordinates": [
            49.4564656,
            11.082947966469206
        ]
    },
    {
        "id": 1639,
        "name": "Wiesmoor, KGS Kooperative Gesamtschule",
        "city": "Wiesmoor",
        "address": "Schulstraße 8, 26639 Wiesmoor",
        "coordinates": [
            53.416067299999995,
            7.7340259439828465
        ]
    },
    {
        "id": 1641,
        "name": "Celle/Wietzenbruch, Grundschule und Hauptschule",
        "city": "Celle",
        "address": "Waldschmiede 3, 29225 Celle",
        "coordinates": [
            52.6032133,
            10.015808762070375
        ]
    },
    {
        "id": 1642,
        "name": "Berlin, Wilhelmstadtschulen",
        "city": "Berlin",
        "address": "Haus 18, 13593 Berlin",
        "coordinates": [
            52.58177075,
            13.328829779852148
        ]
    },
    {
        "id": 1643,
        "name": "Dinkelsbühl, Wirtschaftsschule",
        "city": "Dinkelsbühl",
        "address": "Wörter Str. 17, 91550 Dinkelsbühl",
        "coordinates": [
            49.0652283,
            10.312482095019138
        ]
    },
    {
        "id": 1644,
        "name": "Nürnberg, Wirtschaftsschule",
        "city": "Nürnberg",
        "address": "Nunnenbeckstraße 40, 90489 Nürnberg",
        "coordinates": [
            49.456308899999996,
            11.094611723934342
        ]
    },
    {
        "id": 1647,
        "name": "Universität Bayreuth Hauptmensa",
        "city": "Bayreuth",
        "address": "Universitätsstraße 30, 95447 Bayreuth",
        "coordinates": [
            49.93032581785349,
            11.585517799750555
        ]
    },
    {
        "id": 1649,
        "name": "Universität Bayreuth Frischraum",
        "city": "Bayreuth",
        "address": "Universitätsstraße 30, 95447 Bayreuth",
        "coordinates": [
            49.93068494682793,
            11.585351449236233
        ]
    },
    {
        "id": 1650,
        "name": "Greifswald, Mensa Berthold-Beitz-Platz",
        "city": "Greifswald",
        "address": "Walther-Rathenau-Straße 48, 17489 Greifswald",
        "coordinates": [
            54.0900909,
            13.403481703853792
        ]
    },
    {
        "id": 1651,
        "name": "Greifswald, Mensa Campus Loefflerstraße",
        "city": "Greifswald",
        "address": "Friedrich-Loeffler-Straße 23, 17489 Greifswald",
        "coordinates": [
            54.0975531,
            13.3747705
        ]
    },
    {
        "id": 1652,
        "name": "Neubrandenburg, Mensa Hochschule",
        "city": "Neubrandenburg",
        "address": "Brodaer Straße 4, 17033 Neubrandenburg",
        "coordinates": [
            53.554433149999994,
            13.246302075273235
        ]
    },
    {
        "id": 1659,
        "name": "Ulm, Uni Campus Diner",
        "city": "Ulm",
        "address": "Am Eingang der Uni Süd, 89081 Ulm",
        "coordinates": [
            48.422077538593584,
            9.955985334908263
        ]
    },
    {
        "id": 1718,
        "name": "Mannheim, greenes²",
        "city": "Mannheim",
        "address": "Bismarckstraße 10, 68159 Mannheim",
        "coordinates": [
            49.4867004,
            8.4581561
        ]
    },
    {
        "id": 1719,
        "name": "Mensa Adenauerring",
        "city": "Karlsruhe",
        "address": "Adenauerring 7, 76131 Karlsruhe",
        "coordinates": [
            49.0116591,
            8.4175818
        ]
    },
    {
        "id": 1738,
        "name": "Hamburg, Mensa Studierendenhaus 🆕",
        "city": "Hamburg",
        "address": "Von-Melle-Park 2, 20146 Hamburg",
        "coordinates": [
            53.565840550000004,
            9.98534801455867
        ]
    },
    {
        "id": 1739,
        "name": "Hamburg, Mensa Blattwerk 🆕",
        "city": "Hamburg",
        "address": "Von-Melle-Park 5, 20146 Hamburg",
        "coordinates": [
            53.5654157,
            9.9847877
        ]
    },
    {
        "id": 1740,
        "name": "Hamburg, Schlüters (Pizza & More) 🆕",
        "city": "Hamburg",
        "address": "Von-Melle-Park 2, 20146 Hamburg",
        "coordinates": [
            53.565840550000004,
            9.98534801455867
        ]
    },
    {
        "id": 1741,
        "name": "Hamburg, Café dell'Arte 🆕",
        "city": "Hamburg",
        "address": "Edmund-Siemers-Allee 1, 20146 Hamburg",
        "coordinates": [
            53.5625321,
            9.98902821377645
        ]
    },
    {
        "id": 1742,
        "name": "Hamburg, Mensa Geomatikum 🆕",
        "city": "Hamburg",
        "address": "Bundesstraße 55, 20146 Hamburg",
        "coordinates": [
            53.5683258,
            9.973944
        ]
    },
    {
        "id": 1743,
        "name": "Hamburg, Mensa Überseering 🆕",
        "city": "Hamburg",
        "address": "Überseering 35, 22297 Hamburg",
        "coordinates": [
            53.6045927,
            10.01984307151817
        ]
    },
    {
        "id": 1744,
        "name": "Hamburg, Mensa Botanischer Garten 🆕",
        "city": "Hamburg",
        "address": "Ohnhorststraße 18, 22609 Hamburg",
        "coordinates": [
            53.5599806,
            9.8597402
        ]
    },
    {
        "id": 1745,
        "name": "Hamburg, Mensa Harbug TU 🆕",
        "city": "Hamburg",
        "address": "Denickestraße 22, 21073 Hamburg",
        "coordinates": [
            53.4609968,
            9.9692164
        ]
    },
    {
        "id": 1746,
        "name": "Hamburg, Mensa Stellingen 🆕",
        "city": "Hamburg",
        "address": "Vogt-Kölln-Str. 30, 22527 Hamburg",
        "coordinates": [
            53.60013525,
            9.934040554226664
        ]
    },
    {
        "id": 1747,
        "name": "Hamburg, Mensa Bucerius Law School 🆕",
        "city": "Hamburg",
        "address": "Jungiusstraße 6, 20355 Hamburg",
        "coordinates": [
            53.5589901,
            9.9830528
        ]
    },
    {
        "id": 1748,
        "name": "Hamburg, Mensa Finkenau 🆕",
        "city": "Hamburg",
        "address": "Finkenau 35, 22081 Hamburg",
        "coordinates": [
            53.5689371,
            10.0326947
        ]
    },
    {
        "id": 1749,
        "name": "Hamburg, Mensa HCU HafenCity 🆕",
        "city": "Hamburg",
        "address": "Henning-Voscherau-Platz 1, 20457 Hamburg",
        "coordinates": [
            53.5401582,
            10.0042816
        ]
    },
    {
        "id": 1750,
        "name": "Hamburg, Mensa Bergedorf 🆕",
        "city": "Hamburg",
        "address": "Ulmenliet 20, 21033 Hamburg",
        "coordinates": [
            53.4941253,
            10.2004417
        ]
    },
    {
        "id": 1751,
        "name": "Hamburg, Mensa Berliner Tor 🆕",
        "city": "Hamburg",
        "address": "Berliner Tor 7, 20099 Hamburg",
        "coordinates": [
            53.55713085,
            10.02320120065894
        ]
    },
    {
        "id": 1752,
        "name": "Hamburg, Café Jungiusstraße 🆕",
        "city": "Hamburg",
        "address": "Jungiusstraße 9, 20355 Hamburg",
        "coordinates": [
            53.5587076,
            9.981892827295331
        ]
    },
    {
        "id": 1753,
        "name": "Hamburg, Café CFEL 🆕",
        "city": "Hamburg",
        "address": "Notkestraße 85, 22607 Hamburg",
        "coordinates": [
            53.5764539,
            9.8808542
        ]
    },
    {
        "id": 1754,
        "name": "Hamburg, Café am Mittelweg 🆕",
        "city": "Hamburg",
        "address": "Mittelweg 177, 20148 Hamburg",
        "coordinates": [
            53.5641091,
            9.994978875267606
        ]
    },
    {
        "id": 1756,
        "name": "Hamburg, Café ZessP TU 🆕",
        "city": "Hamburg",
        "address": "Am Schwarzenberg-Campus 2, 21073 Hamburg",
        "coordinates": [
            53.463016,
            9.9705284
        ]
    },
    {
        "id": 1757,
        "name": "Kaiserslautern, TU Bistro 36",
        "city": "Kaiserslautern",
        "address": "Paul-Ehrlich-Straße Bau 36, 67663 Kaiserslautern",
        "coordinates": [
            49.42448215720096,
            7.753521508248641
        ]
    },
    {
        "id": 1758,
        "name": "Cafeteria & American Diner",
        "city": "Kiel",
        "address": "Sokratesplatz 6, 24149 Kiel",
        "coordinates": [
            54.3323777,
            10.1812416
        ]
    },
    {
        "id": 1759,
        "name": "Mensa Gaarden",
        "city": "Kiel",
        "address": "Kaiserstraße 2, 24143 Kiel",
        "coordinates": [
            54.3155954,
            10.1521691
        ]
    },
    {
        "id": 1760,
        "name": "Mensa Kesselhaus",
        "city": "Kiel",
        "address": "Legienstraße 35, 24103 Kiel",
        "coordinates": [
            54.32782205,
            10.129155763933195
        ]
    },
    {
        "id": 1761,
        "name": "Cafeteria Wedel",
        "city": "Wedel",
        "address": "Feldstraße 143, 22880 Wedel",
        "coordinates": [
            53.5776714,
            9.7281446
        ]
    },
    {
        "id": 1763,
        "name": "Cafeteria Morgenstelle",
        "city": "Tübingen",
        "address": "Auf der Morgenstelle 26, 72076 Tübingen",
        "coordinates": [
            48.535552,
            9.0363605
        ]
    },
    {
        "id": 1764,
        "name": "Mensa Albstadt",
        "city": "Albstadt",
        "address": "Jakobstraße 1, 72458 Albstadt",
        "coordinates": [
            48.2102411,
            9.0329923
        ]
    },
    {
        "id": 1765,
        "name": "Mensa Hohenheim",
        "city": "Stuttgart",
        "address": "Garbenstraße 29, 70599 Stuttgart",
        "coordinates": [
            48.7117,
            9.2109403
        ]
    },
    {
        "id": 1766,
        "name": "Mensa Morgenstelle",
        "city": "Tübingen",
        "address": "Auf der Morgenstelle 26, 72076 Tübingen",
        "coordinates": [
            48.535552,
            9.0363605
        ]
    },
    {
        "id": 1767,
        "name": "Mensa Nürtingen",
        "city": "Nürtingen",
        "address": "Neckarsteige 6-10, 72622 Nürtingen",
        "coordinates": [
            48.6272558,
            9.3372021
        ]
    },
    {
        "id": 1768,
        "name": "Mensa Prinz Karl",
        "city": "Tübingen",
        "address": "Hafengasse 6, 72070 Tübingen",
        "coordinates": [
            48.5209604,
            9.0560854
        ]
    },
    {
        "id": 1769,
        "name": "Mensa Reutlingen",
        "city": "Reutlingen",
        "address": "Alteburgstraße 150 Gebäude 11, 72762 Reutlingen",
        "coordinates": null
    },
    {
        "id": 1771,
        "name": "Mensa Shedhalle",
        "city": "Tübingen",
        "address": "Schlachthausstraße 13, 72074 Tübingen",
        "coordinates": [
            48.52737295,
            9.065567900000001
        ]
    },
    {
        "id": 1772,
        "name": "Mensa Sigmaringen",
        "city": "Sigmaringen",
        "address": "Anton-Günther-Straße 51, 72488 Sigmaringen",
        "coordinates": [
            48.08723655,
            9.239926428787928
        ]
    },
    {
        "id": 1778,
        "name": "Mensa Rempartstraße",
        "city": "Freiburg im Breisgau",
        "address": "Rempartstraße 18, 79098 Freiburg, Germany",
        "coordinates": [
            47.992734600000006,
            7.84644171419525
        ]
    },
    {
        "id": 1779,
        "name": "Mensa Institutsviertel",
        "city": "Freiburg im Breisgau",
        "address": "Stefan-Meier-Str. 28, 79104 Freiburg, Germany",
        "coordinates": [
            48.002342255655954,
            7.848511295923496
        ]
    },
    {
        "id": 1780,
        "name": "Mensa Littenweiler",
        "city": "Freiburg im Breisgau",
        "address": "Kunzenweg 29, 79117 Freiburg",
        "coordinates": [
            47.9810026,
            7.894033804920947
        ]
    },
    {
        "id": 1783,
        "name": "Mensa Offenburg",
        "city": "Offenburg",
        "address": "Badstraße 24, 77652 Offenburg",
        "coordinates": [
            48.457532,
            7.942418127312692
        ]
    },
    {
        "id": 1784,
        "name": "Mensa Gengenbach",
        "city": "Offenburg",
        "address": "Brückenhäuserstr. 26a, 77723 Gengenbach",
        "coordinates": [
            48.4026285,
            8.0160813
        ]
    },
    {
        "id": 1785,
        "name": "Mensa Kehl",
        "city": "Kehl",
        "address": "Kinzigallee 1, 77694 Kehl",
        "coordinates": [
            48.57467055,
            7.817001055628934
        ]
    },
    {
        "id": 1786,
        "name": "Mensa Lörrach",
        "city": "Lörrach",
        "address": "Hangstraße 46-50, 79539 Lörrach",
        "coordinates": [
            47.6173017,
            7.677168658107989
        ]
    },
    {
        "id": 1787,
        "name": "MusiKantine",
        "city": "Freiburg im Breisgau",
        "address": "Mendelssohn-Bartholdy-Platz 1, 79102 Freiburg",
        "coordinates": [
            47.9886661,
            7.8730566
        ]
    },
    {
        "id": 1788,
        "name": "Mensa Schwenningen",
        "city": "Villingen-Schwenningen",
        "address": "Karlstr. 19, 78054 Schwenningen",
        "coordinates": [
            48.061080399999994,
            8.534218565351294
        ]
    },
    {
        "id": 1789,
        "name": "Mensa Trossingen",
        "city": "Villingen-Schwenningen",
        "address": "Schultheiß-Koch-Platz 3, 78647 Trossingen",
        "coordinates": [
            48.07500415,
            8.638227127205221
        ]
    },
    {
        "id": 1790,
        "name": "Kantine des Deutschen Caritasverbandes e.V.",
        "city": "Freiburg im Breisgau",
        "address": "Karlstr. 40, 79104 Freiburg",
        "coordinates": [
            48.0043565,
            7.856551
        ]
    },
    {
        "id": 1791,
        "name": "Karlsruhe - Erzbergerstraße",
        "city": "Karlsruhe",
        "address": "Erzbergerstraße 121, 76133 Karlsruhe",
        "coordinates": [
            49.02619905,
            8.385553379136574
        ]
    },
    {
        "id": 1792,
        "name": "Schraders Bistro",
        "city": "Potsdam",
        "address": "August-Bebel-Straße 26–53 14482 Potsdam",
        "coordinates": [
            52.38783244652754,
            13.121451613099227
        ]
    },
    {
        "id": 1793,
        "name": "Mensa TH OWL, Lemgo",
        "city": "Lemgo",
        "address": "Campusallee 12, 32657 Lemgo, Germany",
        "coordinates": [
            52.015782950688646,
            8.906130197871358
        ]
    },
    {
        "id": 1794,
        "name": "Mensa TH OWL, Detmold",
        "city": "Detmold",
        "address": "Emilienstraße 45, 32756 Detmold, Germany",
        "coordinates": [
            51.93670495202416,
            8.866214246474732
        ]
    },
    {
        "id": 1795,
        "name": "Mensa TH OWL, Höxter",
        "city": "Höxter",
        "address": "An der Wilhelmshöhe 44, 37671 Höxter, Germany",
        "coordinates": [
            51.7669731,
            9.371120596233284
        ]
    },
    {
        "id": 1796,
        "name": "Mensa HSBI, Minden",
        "city": "Minden",
        "address": "Artilleriestraße 9, 32427 Minden, Germany",
        "coordinates": [
            52.296521299999995,
            8.906769835399825
        ]
    },
    {
        "id": 1797,
        "name": "Mensa X, Campus Bielefeld",
        "city": "Bielefeld",
        "address": "Universitätsstraße 24, 33615 Bielefeld, Germany",
        "coordinates": [
            52.04007209963487,
            8.49317262309818
        ]
    },
    {
        "id": 1798,
        "name": "Mensa Hochschule für Musik, Detmold",
        "city": "Detmold",
        "address": "Neustadt 22, 32756 Detmold, Germany",
        "coordinates": [
            51.930329,
            8.8761945
        ]
    },
    {
        "id": 1799,
        "name": "Löhe-Mensa",
        "city": "Nürnberg",
        "address": "Deutschherrnstr. 10, 90429 Nürnberg, Germany",
        "coordinates": [
            49.45498695,
            11.063194256832578
        ]
    },
    {
        "id": 1800,
        "name": "Dr.-Theo-Schöller-Mittelschule",
        "city": "Nürnberg",
        "address": "Schnieglinger Straße 38, 90419 Nürnberg, Germany",
        "coordinates": [
            49.4629357,
            11.052960442527477
        ]
    },
    {
        "id": 1802,
        "name": "Georg-Hartmann-Realschule Forchheim",
        "city": "Forchheim",
        "address": "Pestalozzistr. 2, 91301 Forchheim, Germany",
        "coordinates": [
            49.7337023,
            11.062703092952303
        ]
    },
    {
        "id": 1804,
        "name": "Gymnasium Herzogenaurach",
        "city": "Herzogenaurach",
        "address": "Burgstaller Weg 20, 91074 Herzogenaurach, Germany",
        "coordinates": [
            49.56131765,
            10.876569989816932
        ]
    },
    {
        "id": 1806,
        "name": "Irena-Sendler-Schule",
        "city": "Hamburg",
        "address": "Am Pfeilshof 20, 22393 Hamburg, Germany",
        "coordinates": [
            53.63902975,
            10.104506186203599
        ]
    },
    {
        "id": 1807,
        "name": "Grundschule Bramfeld",
        "city": "Hamburg",
        "address": "Hegholt 44, 22179 Hamburg, Germany",
        "coordinates": [
            53.60582805,
            10.082093958086245
        ]
    },
    {
        "id": 1808,
        "name": "Goethe-Gymnasium Bensheim",
        "city": "Bensheim",
        "address": "Auerbacher Weg 24, 64625 Bensheim, Germany",
        "coordinates": [
            49.69144765,
            8.619831058539997
        ]
    },
    {
        "id": 1809,
        "name": "Johannes-Gutenberg-Schule Gernsheim",
        "city": "Gernsheim",
        "address": "Konrad-Adenauer-Ring 7, 64579 Gernsheim, Germany",
        "coordinates": [
            49.7613052,
            8.4930338
        ]
    },
    {
        "id": 1810,
        "name": "Altes Gymnasium Bremen",
        "city": "Bremen",
        "address": "Am Wandrahm 23, 28195 Bremen, Germany",
        "coordinates": [
            53.0830746,
            8.8015558
        ]
    },
    {
        "id": 1811,
        "name": "Max-Planck-Schule Rüsselsheim",
        "city": "Rüsselsheim am Main",
        "address": "Joseph-Haydn-Straße 1, 65428 Rüsselsheim am Main, Germany",
        "coordinates": [
            49.9898861,
            8.425586637219176
        ]
    },
    {
        "id": 1812,
        "name": "Gymnasium Süderelbe",
        "city": "Hamburg",
        "address": "Falkenbergsweg 5, 21149 Hamburg, Germany",
        "coordinates": [
            53.4700355,
            9.865508462812937
        ]
    },
    {
        "id": 1813,
        "name": "Gymnasium Fridericianum",
        "city": "Erlangen",
        "address": "Sebaldusstraße 37, 91058 Erlangen, Germany",
        "coordinates": [
            49.582434,
            11.024928691041666
        ]
    },
    {
        "id": 1816,
        "name": "Mittelschule St. Leonhard",
        "city": "Nürnberg",
        "address": "Schweinauer Str. 20, 90439 Nürnberg",
        "coordinates": [
            49.4405493,
            11.0501666
        ]
    },
    {
        "id": 1819,
        "name": "Grundschule Großgründlach",
        "city": "Nürnberg",
        "address": "Reutleser Straße 6, 90427 Nürnberg, Germany",
        "coordinates": [
            49.529517999999996,
            11.013003584038591
        ]
    },
    {
        "id": 1822,
        "name": "Graf-Stauffenberg-Realschule Bamberg",
        "city": "Bamberg",
        "address": "Kloster-Langheim-Straße 11, 96050 Bamberg",
        "coordinates": [
            49.89873075,
            10.912543968732773
        ]
    },
    {
        "id": 1823,
        "name": "Grund- und Mittelschule Katzwang",
        "city": "Nürnberg",
        "address": "Katzwanger Hauptstraße 19, 90453 Nürnberg",
        "coordinates": [
            49.3547988,
            11.053059620720598
        ]
    },
    {
        "id": 1824,
        "name": "Gabelsberger-Gymnasium Mainburg",
        "city": "Mainburg",
        "address": "Ebrantshauser Str. 70, 84048 Mainburg, Germany",
        "coordinates": [
            48.649937699999995,
            11.768886968085049
        ]
    },
    {
        "id": 1825,
        "name": "Berufsbildende Schule I Osterode",
        "city": "Osterode am Harz",
        "address": "Neustädter Tor 1-3, 37520 Osterode am Harz, Germany",
        "coordinates": [
            51.7256623,
            10.2483374
        ]
    },
    {
        "id": 1826,
        "name": "Tilman-Riemenschneider-Gymnasium Osterode",
        "city": "Osterode am Harz",
        "address": "Dörgestraße 34, 37520 Osterode am Harz, Germany",
        "coordinates": [
            51.727437,
            10.2443961
        ]
    },
    {
        "id": 1827,
        "name": "Grundschule Ramsharde",
        "city": "Flensburg",
        "address": "Am Katharinenhof 29, 24939 Flensburg, Germany",
        "coordinates": [
            54.8028526,
            9.41292539193524
        ]
    },
    {
        "id": 1828,
        "name": "Freie Waldorfschule Landsberg",
        "city": "Landsberg am Lech",
        "address": "Münchener Straße 72, 86899 Landsberg, Germany",
        "coordinates": [
            48.051889450000004,
            10.896602914154414
        ]
    },
    {
        "id": 1829,
        "name": "Stadtteilschule Lohbrügge",
        "city": "Hamburg",
        "address": "Binnenfeldredder 7, 21031 Hamburg, Germany",
        "coordinates": [
            53.5031728,
            10.2058331
        ]
    },
    {
        "id": 1831,
        "name": "Michael-Bauer-Schule",
        "city": "Stuttgart",
        "address": "Othellostraße 5, 70563 Stuttgart, Germany",
        "coordinates": [
            48.7387001,
            9.12375189438693
        ]
    },
    {
        "id": 1832,
        "name": "Mensa Schulzentrum Manzenberg",
        "city": "Tettnang",
        "address": "Manzenbergstraße 8, 88069 Tettnang, Germany",
        "coordinates": [
            47.66430714285547,
            9.588736465689019
        ]
    },
    {
        "id": 1833,
        "name": "Montfort-Gymnasium Tettnang",
        "city": "Tettnang",
        "address": "Manzenbergstraße 30, 88069 Tettnang, Germany",
        "coordinates": [
            47.663277487133136,
            9.58608802440002
        ]
    },
    {
        "id": 1834,
        "name": "Heinrich-Lübke-Schule Brilon",
        "city": "Brilon",
        "address": "Steinweg 11, 59929 Brilon, Germany",
        "coordinates": [
            51.39742065,
            8.5693416790823
        ]
    },
    {
        "id": 1835,
        "name": "Freie Waldorfschule Lörrach",
        "city": "Lörrach",
        "address": "Inzlingerstr. 51, 79540 Lörrach, Germany",
        "coordinates": [
            47.597226,
            7.663065006468484
        ]
    },
    {
        "id": 1836,
        "name": "Leibnizschule Wiesbaden",
        "city": "Wiesbaden",
        "address": "Zietenring 9, 65195 Wiesbaden, Germany",
        "coordinates": [
            50.083811600000004,
            8.224174381524284
        ]
    },
    {
        "id": 1837,
        "name": "Oranienschule Wiesbaden",
        "city": "Wiesbaden",
        "address": "Oranienstraße 5-7, 65185 Wiesbaden, Germany",
        "coordinates": [
            50.0766926,
            8.236073042181259
        ]
    },
    {
        "id": 1838,
        "name": "Cafeteria Dockside",
        "city": "Kiel",
        "address": "Kaiserstraße 2, 24143 Kiel",
        "coordinates": [
            54.315327905718824,
            10.153050492192994
        ]
    },
    {
        "id": 1839,
        "name": "Mensa Flugplatz",
        "city": "Freiburg im Breisgau",
        "address": "Georges-Köhler-Allee 82 (Gebäude 082), 79110 Freiburg",
        "coordinates": [
            48.01315,
            7.83328
        ]
    },
    {
        "id": 1840,
        "name": "zuka solicafe",
        "city": "Freiburg im Breisgau",
        "address": "Uhlandstr. 2 (Haus der Jugend), 79102 Freiburg",
        "coordinates": [
            47.98933,
            7.85199
        ]
    },
    {
        "id": 1841,
        "name": "Joris Bio Cafe Restaurant",
        "city": "Freiburg im Breisgau",
        "address": "Ferdinand-Weiß-Straße 9 - 11 (Stühlinger Gewerbehof), 79106 Freiburg",
        "coordinates": [
            47.99479,
            7.83467
        ]
    }
]